[
  {
    "Station Name": "INDEPENDENT KALKALLO",
    "Address": "1330 HUME FREEWAY",
    "City": "KALKALLO",
    "Postal Code": "3064",
    "Region": "VIC",
    "Country": "AUSTRALIA",
    "Latitude": -37.5264,
    "Longitude": 144.9483,
    "Location Details": "AN ESTABLISHMENT WHERE A RANGE OF FUEL PRODUCTS CAN BE PURCHASED BY MOTORISTS",
    "Category": 3812407,
    "brand": [
      "INDEPENDENT FUEL SUPPLIES"
    ]
  },
  {
    "Station Name": "SAFEWAY CALTEX BURWOOD EAST",
    "Address": "50 MIDDLEBOROUGH ROAD",
    "City": "BURWOOD EAST",
    "Postal Code": "3151",
    "Region": "VIC",
    "Country": "AUSTRALIA",
    "Latitude": -37.8531,
    "Longitude": 145.1325,
    "Location Details": "AN ESTABLISHMENT WHERE A RANGE OF FUEL PRODUCTS CAN BE PURCHASED BY MOTORISTS",
    "Category": 3812407,
    "brand": [
      "CALTEX"
    ]
  },
  {
    "Station Name": "LANCEFIELD MOTORS",
    "Address": "74 MAIN ROAD",
    "City": "LANCEFIELD",
    "Postal Code": "3435",
    "Region": "VIC",
    "Country": "AUSTRALIA",
    "Latitude": -37.2772,
    "Longitude": 144.7373,
    "Location Details": "AN ESTABLISHMENT WHERE A RANGE OF FUEL PRODUCTS CAN BE PURCHASED BY MOTORISTS",
    "Category": 3812407,
    "brand": [
      "SHELL"
    ]
  },
  {
    "Station Name": "COLES EXPRESS MOOROODUC",
    "Address": "993 MOOROODUC HIGHWAY",
    "City": "MOOROODUC",
    "Postal Code": "3933",
    "Region": "VIC",
    "Country": "AUSTRALIA",
    "Latitude": -38.2537,
    "Longitude": 145.0802,
    "Location Details": "AN ESTABLISHMENT WHERE A RANGE OF FUEL PRODUCTS CAN BE PURCHASED BY MOTORISTS",
    "Category": 3812407,
    "brand": [
      "SHELL"
    ]
  },
  {
    "Station Name": "BP MILDURA",
    "Address": "719-721 FIFTEENTH STREET",
    "City": "MILDURA",
    "Postal Code": "3500",
    "Region": "VIC",
    "Country": "AUSTRALIA",
    "Latitude": -34.2145,
    "Longitude": 142.1464,
    "Location Details": "AN ESTABLISHMENT WHERE A RANGE OF FUEL PRODUCTS CAN BE PURCHASED BY MOTORISTS",
    "Category": 3812407,
    "brand": [
      "BP"
    ]
  },
  {
    "Station Name": "BP SOUTH SHEPPARTON",
    "Address": "8042 GOULBURN VALLEY HIGHWAY",
    "City": "KIALLA",
    "Postal Code": "3631",
    "Region": "VIC",
    "Country": "AUSTRALIA",
    "Latitude": -36.4072,
    "Longitude": 145.3945,
    "Location Details": "AN ESTABLISHMENT WHERE A RANGE OF FUEL PRODUCTS CAN BE PURCHASED BY MOTORISTS",
    "Category": 3812407,
    "brand": [
      "BP"
    ]
  },
  {
    "Station Name": "SAFEWAY CALTEX MARIBYRNONG",
    "Address": "17-23 WILLIAMSON ROAD",
    "City": "MAIDSTONE",
    "Postal Code": "3012",
    "Region": "VIC",
    "Country": "AUSTRALIA",
    "Latitude": -37.7754,
    "Longitude": 144.8822,
    "Location Details": "AN ESTABLISHMENT WHERE A RANGE OF FUEL PRODUCTS CAN BE PURCHASED BY MOTORISTS",
    "Category": 3812407,
    "brand": [
      "CALTEX"
    ]
  },
  {
    "Station Name": "FITZROY",
    "Address": "244 NICHOLSON STREET",
    "City": "FITZROY",
    "Postal Code": "3065",
    "Region": "VIC",
    "Country": "AUSTRALIA",
    "Latitude": -37.7977,
    "Longitude": 144.9753,
    "Location Details": "AN ESTABLISHMENT WHERE A RANGE OF FUEL PRODUCTS CAN BE PURCHASED BY MOTORISTS",
    "Category": 3812407,
    "brand": [
      "7-ELEVEN PTY LTD"
    ]
  },
  {
    "Station Name": "SAFEWAY CALTEX FRANKSTON",
    "Address": "41 MCMAHONS ROAD",
    "City": "FRANKSTON",
    "Postal Code": "3199",
    "Region": "VIC",
    "Country": "AUSTRALIA",
    "Latitude": -38.149,
    "Longitude": 145.1344,
    "Location Details": "AN ESTABLISHMENT WHERE A RANGE OF FUEL PRODUCTS CAN BE PURCHASED BY MOTORISTS",
    "Category": 3812407,
    "brand": [
      "CALTEX"
    ]
  },
  {
    "Station Name": "BP WESTERNPORT HIGHWAY",
    "Address": "910 THOMPSONS ROAD",
    "City": "CRANBOURNE WEST",
    "Postal Code": "3977",
    "Region": "VIC",
    "Country": "AUSTRALIA",
    "Latitude": -38.0783,
    "Longitude": 145.2402,
    "Location Details": "AN ESTABLISHMENT WHERE A RANGE OF FUEL PRODUCTS CAN BE PURCHASED BY MOTORISTS",
    "Category": 3812407,
    "brand": [
      "BP"
    ]
  },
  {
    "Station Name": "COLES EXPRESS PONDEROSA",
    "Address": "465 RAGLAN PARADE",
    "City": "WARRNAMBOOL",
    "Postal Code": "3280",
    "Region": "VIC",
    "Country": "AUSTRALIA",
    "Latitude": -38.3837,
    "Longitude": 142.4913,
    "Location Details": "AN ESTABLISHMENT WHERE A RANGE OF FUEL PRODUCTS CAN BE PURCHASED BY MOTORISTS",
    "Category": 3812407,
    "brand": [
      "SHELL"
    ]
  },
  {
    "Station Name": "CALTEX ROXBURGH PARK",
    "Address": "124-130 SOMERTON ROAD",
    "City": "SOMERTON",
    "Postal Code": "3062",
    "Region": "VIC",
    "Country": "AUSTRALIA",
    "Latitude": -37.6415,
    "Longitude": 144.9395,
    "Location Details": "AN ESTABLISHMENT WHERE A RANGE OF FUEL PRODUCTS CAN BE PURCHASED BY MOTORISTS",
    "Category": 3812407,
    "brand": [
      "CALTEX"
    ]
  },
  {
    "Station Name": "BP KERANG",
    "Address": "19 WELLINGTON STREET",
    "City": "KERANG",
    "Postal Code": "3579",
    "Region": "VIC",
    "Country": "AUSTRALIA",
    "Latitude": -35.7347,
    "Longitude": 143.9222,
    "Location Details": "AN ESTABLISHMENT WHERE A RANGE OF FUEL PRODUCTS CAN BE PURCHASED BY MOTORISTS",
    "Category": 3812407,
    "brand": [
      "BP"
    ]
  },
  {
    "Station Name": "ADELAIDE FUEL DISTRIBUTORS PTY LTD",
    "Address": "267 SEAFORD ROAD",
    "City": "SEAFORD",
    "Postal Code": "3198",
    "Region": "VIC",
    "Country": "AUSTRALIA",
    "Latitude": -38.1128,
    "Longitude": 145.1563,
    "Location Details": "AN ESTABLISHMENT WHERE A RANGE OF FUEL PRODUCTS CAN BE PURCHASED BY MOTORISTS",
    "Category": 3812407,
    "brand": [
      "UNITED"
    ]
  },
  {
    "Station Name": "COLES EXPRESS LATROBE TERRACE",
    "Address": "202 LATROBE TERRACE",
    "City": "GEELONG WEST",
    "Postal Code": "3218",
    "Region": "VIC",
    "Country": "AUSTRALIA",
    "Latitude": -38.144,
    "Longitude": 144.353,
    "Location Details": "AN ESTABLISHMENT WHERE A RANGE OF FUEL PRODUCTS CAN BE PURCHASED BY MOTORISTS",
    "Category": 3812407,
    "brand": [
      "SHELL"
    ]
  },
  {
    "Station Name": "BP 2GO NORTH BALLARAT",
    "Address": "702 CRESWICK ROAD",
    "City": "BALLARAT",
    "Postal Code": "3350",
    "Region": "VIC",
    "Country": "AUSTRALIA",
    "Latitude": -37.5419,
    "Longitude": 143.8506,
    "Location Details": "AN ESTABLISHMENT WHERE A RANGE OF FUEL PRODUCTS CAN BE PURCHASED BY MOTORISTS",
    "Category": 3812407,
    "brand": [
      "BP"
    ]
  },
  {
    "Station Name": "COLES EXPRESS WANTIRNA SOUTH",
    "Address": "435 STUD ROAD",
    "City": "WANTIRNA SOUTH",
    "Postal Code": "3152",
    "Region": "VIC",
    "Country": "AUSTRALIA",
    "Latitude": -37.8775,
    "Longitude": 145.2336,
    "Location Details": "AN ESTABLISHMENT WHERE A RANGE OF FUEL PRODUCTS CAN BE PURCHASED BY MOTORISTS",
    "Category": 3812407,
    "brand": [
      "SHELL"
    ]
  },
  {
    "Station Name": "COLES EXPRESS ORMOND",
    "Address": "423 NORTH ROAD",
    "City": "ORMOND",
    "Postal Code": "3204",
    "Region": "VIC",
    "Country": "AUSTRALIA",
    "Latitude": -37.9032,
    "Longitude": 145.0364,
    "Location Details": "AN ESTABLISHMENT WHERE A RANGE OF FUEL PRODUCTS CAN BE PURCHASED BY MOTORISTS",
    "Category": 3812407,
    "brand": [
      "SHELL"
    ]
  },
  {
    "Station Name": "MARYBOROUGH",
    "Address": "24-26 TUAGGRA STREET",
    "City": "MARYBOROUGH",
    "Postal Code": "3465",
    "Region": "VIC",
    "Country": "AUSTRALIA",
    "Latitude": -37.0476,
    "Longitude": 143.7419,
    "Location Details": "AN ESTABLISHMENT WHERE A RANGE OF FUEL PRODUCTS CAN BE PURCHASED BY MOTORISTS",
    "Category": 3812407,
    "brand": [
      "UNITED"
    ]
  },
  {
    "Station Name": "CALTEX SAFEWAY CHELTENHAM",
    "Address": "299 CHARMAN ROAD",
    "City": "CHELTENHAM",
    "Postal Code": "3192",
    "Region": "VIC",
    "Country": "AUSTRALIA",
    "Latitude": -37.9651,
    "Longitude": 145.0554,
    "Location Details": "AN ESTABLISHMENT WHERE A RANGE OF FUEL PRODUCTS CAN BE PURCHASED BY MOTORISTS",
    "Category": 3812407,
    "brand": [
      "CALTEX"
    ]
  },
  {
    "Station Name": "SAFEWAY CALTEX DIAMOND CREEK",
    "Address": "307 DIAMOND CREEK ROAD",
    "City": "PLENTY",
    "Postal Code": "3090",
    "Region": "VIC",
    "Country": "AUSTRALIA",
    "Latitude": -37.6786,
    "Longitude": 145.1235,
    "Location Details": "AN ESTABLISHMENT WHERE A RANGE OF FUEL PRODUCTS CAN BE PURCHASED BY MOTORISTS",
    "Category": 3812407,
    "brand": [
      "CALTEX"
    ]
  },
  {
    "Station Name": "SAFEWAY CALTEX ROSEBUD",
    "Address": "1203 POINT NEPEAN ROAD",
    "City": "ROSEBUD",
    "Postal Code": "3939",
    "Region": "VIC",
    "Country": "AUSTRALIA",
    "Latitude": -38.3577,
    "Longitude": 144.8992,
    "Location Details": "AN ESTABLISHMENT WHERE A RANGE OF FUEL PRODUCTS CAN BE PURCHASED BY MOTORISTS",
    "Category": 3812407,
    "brand": [
      "CALTEX"
    ]
  },
  {
    "Station Name": "STRATHMERTON ROADHOUSE",
    "Address": "4972 MURRAY VALLEY HIGHWAY",
    "City": "STRATHMERTON",
    "Postal Code": "3641",
    "Region": "VIC",
    "Country": "AUSTRALIA",
    "Latitude": -35.925,
    "Longitude": 145.5001,
    "Location Details": "AN ESTABLISHMENT WHERE A RANGE OF FUEL PRODUCTS CAN BE PURCHASED BY MOTORISTS",
    "Category": 3812407,
    "brand": [
      "INDEPENDENT FUEL SUPPLIES"
    ]
  },
  {
    "Station Name": "CALTEX YARRA GLEN",
    "Address": "66 BELL STREET",
    "City": "YARRA GLEN",
    "Postal Code": "3775",
    "Region": "VIC",
    "Country": "AUSTRALIA",
    "Latitude": -37.654,
    "Longitude": 145.3761,
    "Location Details": "AN ESTABLISHMENT WHERE A RANGE OF FUEL PRODUCTS CAN BE PURCHASED BY MOTORISTS",
    "Category": 3812407,
    "brand": [
      "CALTEX"
    ]
  },
  {
    "Station Name": "MOBIL NUMURKAH",
    "Address": "2 TOCUMWAL ROAD",
    "City": "NUMURKAH",
    "Postal Code": "3636",
    "Region": "VIC",
    "Country": "AUSTRALIA",
    "Latitude": -36.0881,
    "Longitude": 145.4428,
    "Location Details": "AN ESTABLISHMENT WHERE A RANGE OF FUEL PRODUCTS CAN BE PURCHASED BY MOTORISTS",
    "Category": 3812407,
    "brand": [
      "7-ELEVEN PTY LTD"
    ]
  },
  {
    "Station Name": "CLAYTON",
    "Address": "187-191 CLAYTON ROAD",
    "City": "CLAYTON",
    "Postal Code": "3166",
    "Region": "VIC",
    "Country": "AUSTRALIA",
    "Latitude": -37.9132,
    "Longitude": 145.1217,
    "Location Details": "AN ESTABLISHMENT WHERE A RANGE OF FUEL PRODUCTS CAN BE PURCHASED BY MOTORISTS",
    "Category": 3812407,
    "brand": [
      "7-ELEVEN PTY LTD"
    ]
  },
  {
    "Station Name": "SAFEWAY CALTEX DONCASTER EAST",
    "Address": "987 DONCASTER ROAD",
    "City": "DONCASTER EAST",
    "Postal Code": "3109",
    "Region": "VIC",
    "Country": "AUSTRALIA",
    "Latitude": -37.7885,
    "Longitude": 145.159,
    "Location Details": "AN ESTABLISHMENT WHERE A RANGE OF FUEL PRODUCTS CAN BE PURCHASED BY MOTORISTS",
    "Category": 3812407,
    "brand": [
      "CALTEX"
    ]
  },
  {
    "Station Name": "BP  BOX HILL SOUTH",
    "Address": "891 CANTERBURY ROAD",
    "City": "BOX HILL",
    "Postal Code": "3128",
    "Region": "VIC",
    "Country": "AUSTRALIA",
    "Latitude": -37.8286,
    "Longitude": 145.1222,
    "Location Details": "AN ESTABLISHMENT WHERE A RANGE OF FUEL PRODUCTS CAN BE PURCHASED BY MOTORISTS",
    "Category": 3812407,
    "brand": [
      "BP"
    ]
  },
  {
    "Station Name": "MOBIL MILDURA",
    "Address": "787-793 FIFTEENTH STREET",
    "City": "MILDURA",
    "Postal Code": "3500",
    "Region": "VIC",
    "Country": "AUSTRALIA",
    "Latitude": -34.2109,
    "Longitude": 142.1422,
    "Location Details": "AN ESTABLISHMENT WHERE A RANGE OF FUEL PRODUCTS CAN BE PURCHASED BY MOTORISTS",
    "Category": 3812407,
    "brand": [
      "7-ELEVEN PTY LTD"
    ]
  },
  {
    "Station Name": "CALTEX MORNINGTON",
    "Address": "841 NEPEAN HIGHWAY",
    "City": "MORNINGTON",
    "Postal Code": "3931",
    "Region": "VIC",
    "Country": "AUSTRALIA",
    "Latitude": -38.2334,
    "Longitude": 145.0392,
    "Location Details": "AN ESTABLISHMENT WHERE A RANGE OF FUEL PRODUCTS CAN BE PURCHASED BY MOTORISTS",
    "Category": 3812407,
    "brand": [
      "CALTEX"
    ]
  },
  {
    "Station Name": "CALTEX SAFEWAY CARNEGIE",
    "Address": "147 KOORNANG ROAD",
    "City": "CARNEGIE",
    "Postal Code": "3163",
    "Region": "VIC",
    "Country": "AUSTRALIA",
    "Latitude": -37.8895,
    "Longitude": 145.0566,
    "Location Details": "AN ESTABLISHMENT WHERE A RANGE OF FUEL PRODUCTS CAN BE PURCHASED BY MOTORISTS",
    "Category": 3812407,
    "brand": [
      "CALTEX"
    ]
  },
  {
    "Station Name": "CALTEX HAMILTON",
    "Address": "79 COX STREET",
    "City": "HAMILTON",
    "Postal Code": "3300",
    "Region": "VIC",
    "Country": "AUSTRALIA",
    "Latitude": -37.7413,
    "Longitude": 142.0267,
    "Location Details": "AN ESTABLISHMENT WHERE A RANGE OF FUEL PRODUCTS CAN BE PURCHASED BY MOTORISTS",
    "Category": 3812407,
    "brand": [
      "CALTEX"
    ]
  },
  {
    "Station Name": "WARRNAMBOOL",
    "Address": "634 RAGLAN PARADE",
    "City": "WARRNAMBOOL",
    "Postal Code": "3280",
    "Region": "VIC",
    "Country": "AUSTRALIA",
    "Latitude": -38.3781,
    "Longitude": 142.4825,
    "Location Details": "AN ESTABLISHMENT WHERE A RANGE OF FUEL PRODUCTS CAN BE PURCHASED BY MOTORISTS",
    "Category": 3812407,
    "brand": [
      "CALTEX"
    ]
  },
  {
    "Station Name": "CALTEX BENDIGO",
    "Address": "51 SANDHURST ROAD",
    "City": "BENDIGO",
    "Postal Code": "3556",
    "Region": "VIC",
    "Country": "AUSTRALIA",
    "Latitude": -36.733,
    "Longitude": 144.2646,
    "Location Details": "AN ESTABLISHMENT WHERE A RANGE OF FUEL PRODUCTS CAN BE PURCHASED BY MOTORISTS",
    "Category": 3812407,
    "brand": [
      "CALTEX"
    ]
  },
  {
    "Station Name": "COLES EXPRESS MARYBOROUGH",
    "Address": "53-55 HIGH STREET",
    "City": "MARYBOROUGH",
    "Postal Code": "3465",
    "Region": "VIC",
    "Country": "AUSTRALIA",
    "Latitude": -37.0483,
    "Longitude": 143.7349,
    "Location Details": "AN ESTABLISHMENT WHERE A RANGE OF FUEL PRODUCTS CAN BE PURCHASED BY MOTORISTS",
    "Category": 3812407,
    "brand": [
      "SHELL"
    ]
  },
  {
    "Station Name": "MOBIL ST ARNAUD",
    "Address": "1 MELBOURNE ROAD",
    "City": "ST ARNAUD",
    "Postal Code": "3478",
    "Region": "VIC",
    "Country": "AUSTRALIA",
    "Latitude": -36.6217,
    "Longitude": 143.2654,
    "Location Details": "AN ESTABLISHMENT WHERE A RANGE OF FUEL PRODUCTS CAN BE PURCHASED BY MOTORISTS",
    "Category": 3812407,
    "brand": [
      "7-ELEVEN PTY LTD"
    ]
  },
  {
    "Station Name": "CALTEX CORRYONG",
    "Address": "1516 MURRAY VALLEY HIGHWAY",
    "City": "CORRYONG",
    "Postal Code": "3707",
    "Region": "VIC",
    "Country": "AUSTRALIA",
    "Latitude": -36.2028,
    "Longitude": 147.8836,
    "Location Details": "AN ESTABLISHMENT WHERE A RANGE OF FUEL PRODUCTS CAN BE PURCHASED BY MOTORISTS",
    "Category": 3812407,
    "brand": [
      "CALTEX"
    ]
  },
  {
    "Station Name": "SAFEWAY CALTEX WARRAGUL",
    "Address": "53 SMITH STREET",
    "City": "WARRAGUL",
    "Postal Code": "3820",
    "Region": "VIC",
    "Country": "AUSTRALIA",
    "Latitude": -38.1603,
    "Longitude": 145.9317,
    "Location Details": "AN ESTABLISHMENT WHERE A RANGE OF FUEL PRODUCTS CAN BE PURCHASED BY MOTORISTS",
    "Category": 3812407,
    "brand": [
      "CALTEX"
    ]
  },
  {
    "Station Name": "COLES EXPRESS MULGRAVE",
    "Address": "358 POLICE ROAD",
    "City": "NOBLE PARK NORTH",
    "Postal Code": "3174",
    "Region": "VIC",
    "Country": "AUSTRALIA",
    "Latitude": -37.938,
    "Longitude": 145.1918,
    "Location Details": "AN ESTABLISHMENT WHERE A RANGE OF FUEL PRODUCTS CAN BE PURCHASED BY MOTORISTS",
    "Category": 3812407,
    "brand": [
      "SHELL"
    ]
  },
  {
    "Station Name": "INDEPENDENT DARNUM",
    "Address": "1 CROPLEY STREET",
    "City": "DARNUM",
    "Postal Code": "3822",
    "Region": "VIC",
    "Country": "AUSTRALIA",
    "Latitude": -38.1877,
    "Longitude": 146.0032,
    "Location Details": "AN ESTABLISHMENT WHERE A RANGE OF FUEL PRODUCTS CAN BE PURCHASED BY MOTORISTS",
    "Category": 3812407,
    "brand": [
      "INDEPENDENT FUEL SUPPLIES"
    ]
  },
  {
    "Station Name": "CORNER",
    "Address": "25 MAIN STREET",
    "City": "WELSHPOOL",
    "Postal Code": "3966",
    "Region": "VIC",
    "Country": "AUSTRALIA",
    "Latitude": -38.6651,
    "Longitude": 146.4379,
    "Location Details": "AN ESTABLISHMENT WHERE A RANGE OF FUEL PRODUCTS CAN BE PURCHASED BY MOTORISTS",
    "Category": 3812407,
    "brand": [
      "BP"
    ]
  },
  {
    "Station Name": "BP TECOMA",
    "Address": "1524 BURWOOD HIGHWAY",
    "City": "TECOMA",
    "Postal Code": "3160",
    "Region": "VIC",
    "Country": "AUSTRALIA",
    "Latitude": -37.9066,
    "Longitude": 145.3426,
    "Location Details": "AN ESTABLISHMENT WHERE A RANGE OF FUEL PRODUCTS CAN BE PURCHASED BY MOTORISTS",
    "Category": 3812407,
    "brand": [
      "BP"
    ]
  },
  {
    "Station Name": "MOBIL LONGFORD",
    "Address": "115 SEASPRAY ROAD",
    "City": "LONGFORD",
    "Postal Code": "3851",
    "Region": "VIC",
    "Country": "AUSTRALIA",
    "Latitude": -38.1842,
    "Longitude": 147.0917,
    "Location Details": "AN ESTABLISHMENT WHERE A RANGE OF FUEL PRODUCTS CAN BE PURCHASED BY MOTORISTS",
    "Category": 3812407,
    "brand": [
      "INDEPENDENT FUEL SUPPLIES"
    ]
  },
  {
    "Station Name": "CALTEX BAIRNSDALE",
    "Address": "322 MAIN STREET",
    "City": "BAIRNSDALE",
    "Postal Code": "3875",
    "Region": "VIC",
    "Country": "AUSTRALIA",
    "Latitude": -37.8271,
    "Longitude": 147.6246,
    "Location Details": "AN ESTABLISHMENT WHERE A RANGE OF FUEL PRODUCTS CAN BE PURCHASED BY MOTORISTS",
    "Category": 3812407,
    "brand": [
      "CALTEX"
    ]
  },
  {
    "Station Name": "COLES EXPRESS ST KILDA",
    "Address": "120-134 BARKLY STREET",
    "City": "ST KILDA",
    "Postal Code": "3182",
    "Region": "VIC",
    "Country": "AUSTRALIA",
    "Latitude": -37.8657,
    "Longitude": 144.9818,
    "Location Details": "AN ESTABLISHMENT WHERE A RANGE OF FUEL PRODUCTS CAN BE PURCHASED BY MOTORISTS",
    "Category": 3812407,
    "brand": [
      "SHELL"
    ]
  },
  {
    "Station Name": "MARIBYRNONG",
    "Address": "32 RALEIGH ROAD",
    "City": "MARIBYRNONG",
    "Postal Code": "3032",
    "Region": "VIC",
    "Country": "AUSTRALIA",
    "Latitude": -37.7693,
    "Longitude": 144.8975,
    "Location Details": "AN ESTABLISHMENT WHERE A RANGE OF FUEL PRODUCTS CAN BE PURCHASED BY MOTORISTS",
    "Category": 3812407,
    "brand": [
      "7-ELEVEN PTY LTD"
    ]
  },
  {
    "Station Name": "BP BALLAN TRAVEL STOP",
    "Address": "6498 WESTERN FREEWAY",
    "City": "BALLAN",
    "Postal Code": "3342",
    "Region": "VIC",
    "Country": "AUSTRALIA",
    "Latitude": -37.5907,
    "Longitude": 144.2436,
    "Location Details": "AN ESTABLISHMENT WHERE A RANGE OF FUEL PRODUCTS CAN BE PURCHASED BY MOTORISTS",
    "Category": 3812407,
    "brand": [
      "BP"
    ]
  },
  {
    "Station Name": "AMPOL LEXTON",
    "Address": "3554 SUNRAYSIA HIGHWAY",
    "City": "LEXTON",
    "Postal Code": "3352",
    "Region": "VIC",
    "Country": "AUSTRALIA",
    "Latitude": -37.2743,
    "Longitude": 143.5151,
    "Location Details": "AN ESTABLISHMENT WHERE A RANGE OF FUEL PRODUCTS CAN BE PURCHASED BY MOTORISTS",
    "Category": 3812407,
    "brand": [
      "AMPOL"
    ]
  },
  {
    "Station Name": "BP LITTLE RIVER GEELONG BOUND",
    "Address": "20 POUSTIES ROAD",
    "City": "AVALON",
    "Postal Code": "3212",
    "Region": "VIC",
    "Country": "AUSTRALIA",
    "Latitude": -38.0031,
    "Longitude": 144.4918,
    "Location Details": "AN ESTABLISHMENT WHERE A RANGE OF FUEL PRODUCTS CAN BE PURCHASED BY MOTORISTS",
    "Category": 3812407,
    "brand": [
      "BP"
    ]
  },
  {
    "Station Name": "CALTEX WODONGA",
    "Address": "4397 ANZAC PARADE",
    "City": "WODONGA",
    "Postal Code": "3690",
    "Region": "VIC",
    "Country": "AUSTRALIA",
    "Latitude": -36.135,
    "Longitude": 146.9045,
    "Location Details": "AN ESTABLISHMENT WHERE A RANGE OF FUEL PRODUCTS CAN BE PURCHASED BY MOTORISTS",
    "Category": 3812407,
    "brand": [
      "CALTEX"
    ]
  },
  {
    "Station Name": "CALTEX GLEN WAVERLEY",
    "Address": "262 SPRINGVALE ROAD",
    "City": "GLEN WAVERLEY",
    "Postal Code": "3150",
    "Region": "VIC",
    "Country": "AUSTRALIA",
    "Latitude": -37.88,
    "Longitude": 145.1661,
    "Location Details": "AN ESTABLISHMENT WHERE A RANGE OF FUEL PRODUCTS CAN BE PURCHASED BY MOTORISTS",
    "Category": 3812407,
    "brand": [
      "CALTEX"
    ]
  },
  {
    "Station Name": "SAFEWAY CALTEX GLEN HUNTLY",
    "Address": "923 GLEN HUNTLY ROAD",
    "City": "CAULFIELD",
    "Postal Code": "3162",
    "Region": "VIC",
    "Country": "AUSTRALIA",
    "Latitude": -37.8876,
    "Longitude": 145.0292,
    "Location Details": "AN ESTABLISHMENT WHERE A RANGE OF FUEL PRODUCTS CAN BE PURCHASED BY MOTORISTS",
    "Category": 3812407,
    "brand": [
      "CALTEX"
    ]
  },
  {
    "Station Name": "COLES EXPRESS ABBOTSFORD",
    "Address": "266 HODDLE STREET",
    "City": "ABBOTSFORD",
    "Postal Code": "3067",
    "Region": "VIC",
    "Country": "AUSTRALIA",
    "Latitude": -37.7982,
    "Longitude": 144.9937,
    "Location Details": "AN ESTABLISHMENT WHERE A RANGE OF FUEL PRODUCTS CAN BE PURCHASED BY MOTORISTS",
    "Category": 3812407,
    "brand": [
      "SHELL"
    ]
  },
  {
    "Station Name": "COLES EXPRESS FLEMINGTON",
    "Address": "291-309 SMITHFIELD ROAD",
    "City": "KENSINGTON",
    "Postal Code": "3031",
    "Region": "VIC",
    "Country": "AUSTRALIA",
    "Latitude": -37.7921,
    "Longitude": 144.9187,
    "Location Details": "AN ESTABLISHMENT WHERE A RANGE OF FUEL PRODUCTS CAN BE PURCHASED BY MOTORISTS",
    "Category": 3812407,
    "brand": [
      "SHELL"
    ]
  },
  {
    "Station Name": "PAT & TINA",
    "Address": "176 NUMURKAH ROAD",
    "City": "SHEPPARTON",
    "Postal Code": "3630",
    "Region": "VIC",
    "Country": "AUSTRALIA",
    "Latitude": -36.3542,
    "Longitude": 145.4015,
    "Location Details": "AN ESTABLISHMENT WHERE A RANGE OF FUEL PRODUCTS CAN BE PURCHASED BY MOTORISTS",
    "Category": 3812407,
    "brand": [
      "BP"
    ]
  },
  {
    "Station Name": "CALTEX CLAYTON",
    "Address": "409 CLAYTON ROAD",
    "City": "CLAYTON",
    "Postal Code": "3168",
    "Region": "VIC",
    "Country": "AUSTRALIA",
    "Latitude": -37.9283,
    "Longitude": 145.1188,
    "Location Details": "AN ESTABLISHMENT WHERE A RANGE OF FUEL PRODUCTS CAN BE PURCHASED BY MOTORISTS",
    "Category": 3812407,
    "brand": [
      "CALTEX"
    ]
  },
  {
    "Station Name": "CALTEX SOMERTON",
    "Address": "2-4 SOMERTON PARK DRIVE",
    "City": "CAMPBELLFIELD",
    "Postal Code": "3061",
    "Region": "VIC",
    "Country": "AUSTRALIA",
    "Latitude": -37.6432,
    "Longitude": 144.946,
    "Location Details": "AN ESTABLISHMENT WHERE A RANGE OF FUEL PRODUCTS CAN BE PURCHASED BY MOTORISTS",
    "Category": 3812407,
    "brand": [
      "CALTEX"
    ]
  },
  {
    "Station Name": "UNITED SOMERTON",
    "Address": "132-136 SOMERTON ROAD",
    "City": "SOMERTON",
    "Postal Code": "3062",
    "Region": "VIC",
    "Country": "AUSTRALIA",
    "Latitude": -37.6414,
    "Longitude": 144.9385,
    "Location Details": "AN ESTABLISHMENT WHERE A RANGE OF FUEL PRODUCTS CAN BE PURCHASED BY MOTORISTS",
    "Category": 3812407,
    "brand": [
      "UNITED"
    ]
  },
  {
    "Station Name": "COLES EXPRESS KOONUNG",
    "Address": "187 HIGH STREET",
    "City": "TEMPLESTOWE LOWER",
    "Postal Code": "3107",
    "Region": "VIC",
    "Country": "AUSTRALIA",
    "Latitude": -37.774,
    "Longitude": 145.1135,
    "Location Details": "AN ESTABLISHMENT WHERE A RANGE OF FUEL PRODUCTS CAN BE PURCHASED BY MOTORISTS",
    "Category": 3812407,
    "brand": [
      "SHELL"
    ]
  },
  {
    "Station Name": "INDEPENDENT TRARALGON SOUTH",
    "Address": "25 KEITH MORGAN DRIVE",
    "City": "TRARALGON SOUTH",
    "Postal Code": "3844",
    "Region": "VIC",
    "Country": "AUSTRALIA",
    "Latitude": -38.2978,
    "Longitude": 146.542,
    "Location Details": "AN ESTABLISHMENT WHERE A RANGE OF FUEL PRODUCTS CAN BE PURCHASED BY MOTORISTS",
    "Category": 3812407,
    "brand": [
      "INDEPENDENT FUEL SUPPLIES"
    ]
  },
  {
    "Station Name": "CALTEX WODONGA",
    "Address": "177 LAWRENCE STREET",
    "City": "WODONGA",
    "Postal Code": "3690",
    "Region": "VIC",
    "Country": "AUSTRALIA",
    "Latitude": -36.1248,
    "Longitude": 146.8888,
    "Location Details": "AN ESTABLISHMENT WHERE A RANGE OF FUEL PRODUCTS CAN BE PURCHASED BY MOTORISTS",
    "Category": 3812407,
    "brand": [
      "7-ELEVEN PTY LTD"
    ]
  },
  {
    "Station Name": "BP  CALDER INBOUND",
    "Address": "1262 CALDER FREEWAY",
    "City": "KEILOR NORTH",
    "Postal Code": "3036",
    "Region": "VIC",
    "Country": "AUSTRALIA",
    "Latitude": -37.6652,
    "Longitude": 144.7537,
    "Location Details": "AN ESTABLISHMENT WHERE A RANGE OF FUEL PRODUCTS CAN BE PURCHASED BY MOTORISTS",
    "Category": 3812407,
    "brand": [
      "BP"
    ]
  },
  {
    "Station Name": "COLES EXPRESS GLADSTONE PARK",
    "Address": "210 MICKLEHAM ROAD",
    "City": "GLADSTONE PARK",
    "Postal Code": "3043",
    "Region": "VIC",
    "Country": "AUSTRALIA",
    "Latitude": -37.6868,
    "Longitude": 144.883,
    "Location Details": "AN ESTABLISHMENT WHERE A RANGE OF FUEL PRODUCTS CAN BE PURCHASED BY MOTORISTS",
    "Category": 3812407,
    "brand": [
      "SHELL"
    ]
  },
  {
    "Station Name": "CALTEX STRATHMERTON",
    "Address": "47-49 MAIN STREET",
    "City": "STRATHMERTON",
    "Postal Code": "3641",
    "Region": "VIC",
    "Country": "AUSTRALIA",
    "Latitude": -35.9251,
    "Longitude": 145.4786,
    "Location Details": "AN ESTABLISHMENT WHERE A RANGE OF FUEL PRODUCTS CAN BE PURCHASED BY MOTORISTS",
    "Category": 3812407,
    "brand": [
      "CALTEX"
    ]
  },
  {
    "Station Name": "SPRINGVALE",
    "Address": "792-806 HEATHERTON ROAD",
    "City": "SPRINGVALE",
    "Postal Code": "3172",
    "Region": "VIC",
    "Country": "AUSTRALIA",
    "Latitude": -37.9616,
    "Longitude": 145.1437,
    "Location Details": "AN ESTABLISHMENT WHERE A RANGE OF FUEL PRODUCTS CAN BE PURCHASED BY MOTORISTS",
    "Category": 3812407,
    "brand": [
      "7-ELEVEN PTY LTD"
    ]
  },
  {
    "Station Name": "MOBIL COBDEN",
    "Address": "1236 CAMPERDOWN-COBDEN ROAD",
    "City": "COBDEN",
    "Postal Code": "3266",
    "Region": "VIC",
    "Country": "AUSTRALIA",
    "Latitude": -38.3203,
    "Longitude": 143.0797,
    "Location Details": "AN ESTABLISHMENT WHERE A RANGE OF FUEL PRODUCTS CAN BE PURCHASED BY MOTORISTS",
    "Category": 3812407,
    "brand": [
      "7-ELEVEN PTY LTD"
    ]
  },
  {
    "Station Name": "SAFEWAY CALTEX YARRAWONGA",
    "Address": "156 BELMORE STREET",
    "City": "YARRAWONGA",
    "Postal Code": "3730",
    "Region": "VIC",
    "Country": "AUSTRALIA",
    "Latitude": -36.0153,
    "Longitude": 146.0049,
    "Location Details": "AN ESTABLISHMENT WHERE A RANGE OF FUEL PRODUCTS CAN BE PURCHASED BY MOTORISTS",
    "Category": 3812407,
    "brand": [
      "CALTEX"
    ]
  },
  {
    "Station Name": "MOBIL MOOROODUC",
    "Address": "1051 MOOROODUC HIGHWAY",
    "City": "MOOROODUC",
    "Postal Code": "3933",
    "Region": "VIC",
    "Country": "AUSTRALIA",
    "Latitude": -38.2585,
    "Longitude": 145.0776,
    "Location Details": "AN ESTABLISHMENT WHERE A RANGE OF FUEL PRODUCTS CAN BE PURCHASED BY MOTORISTS",
    "Category": 3812407,
    "brand": [
      "7-ELEVEN PTY LTD"
    ]
  },
  {
    "Station Name": "SAFEWAY CALTEX TRARALGON",
    "Address": "1 SEYMOUR STREET",
    "City": "TRARALGON",
    "Postal Code": "3844",
    "Region": "VIC",
    "Country": "AUSTRALIA",
    "Latitude": -38.1969,
    "Longitude": 146.5405,
    "Location Details": "AN ESTABLISHMENT WHERE A RANGE OF FUEL PRODUCTS CAN BE PURCHASED BY MOTORISTS",
    "Category": 3812407,
    "brand": [
      "CALTEX"
    ]
  },
  {
    "Station Name": "INDEPENDENT TARWIN LOWER",
    "Address": "49-51 RIVER DRIVE",
    "City": "TARWIN LOWER",
    "Postal Code": "3956",
    "Region": "VIC",
    "Country": "AUSTRALIA",
    "Latitude": -38.7013,
    "Longitude": 145.8686,
    "Location Details": "AN ESTABLISHMENT WHERE A RANGE OF FUEL PRODUCTS CAN BE PURCHASED BY MOTORISTS",
    "Category": 3812407,
    "brand": [
      "CALTEX"
    ]
  },
  {
    "Station Name": "SAFEWAY CALTEX PRESTON",
    "Address": "340 MURRAY ROAD",
    "City": "PRESTON",
    "Postal Code": "3072",
    "Region": "VIC",
    "Country": "AUSTRALIA",
    "Latitude": -37.7374,
    "Longitude": 145.0018,
    "Location Details": "AN ESTABLISHMENT WHERE A RANGE OF FUEL PRODUCTS CAN BE PURCHASED BY MOTORISTS",
    "Category": 3812407,
    "brand": [
      "CALTEX"
    ]
  },
  {
    "Station Name": "BP OUYEN FUEL AND FOOD",
    "Address": "1 FARRELL STREET",
    "City": "OUYEN",
    "Postal Code": "3490",
    "Region": "VIC",
    "Country": "AUSTRALIA",
    "Latitude": -35.071,
    "Longitude": 142.3194,
    "Location Details": "AN ESTABLISHMENT WHERE A RANGE OF FUEL PRODUCTS CAN BE PURCHASED BY MOTORISTS",
    "Category": 3812407,
    "brand": [
      "BP"
    ]
  },
  {
    "Station Name": "SAFEWAY CALTEX ENDEAVOUR HILLS",
    "Address": "7 JERSEY CLOSE",
    "City": "ENDEAVOUR HILLS",
    "Postal Code": "3802",
    "Region": "VIC",
    "Country": "AUSTRALIA",
    "Latitude": -37.9762,
    "Longitude": 145.2609,
    "Location Details": "AN ESTABLISHMENT WHERE A RANGE OF FUEL PRODUCTS CAN BE PURCHASED BY MOTORISTS",
    "Category": 3812407,
    "brand": [
      "CALTEX"
    ]
  },
  {
    "Station Name": "COLES EXPRESS PAKENHAM",
    "Address": "885 PRINCES HIGHWAY",
    "City": "PAKENHAM",
    "Postal Code": "3810",
    "Region": "VIC",
    "Country": "AUSTRALIA",
    "Latitude": -38.062,
    "Longitude": 145.459,
    "Location Details": "AN ESTABLISHMENT WHERE A RANGE OF FUEL PRODUCTS CAN BE PURCHASED BY MOTORISTS",
    "Category": 3812407,
    "brand": [
      "SHELL"
    ]
  },
  {
    "Station Name": "SAFEWAY CALTEX RINGWOOD",
    "Address": "379 MAROONDAH HIGHWAY",
    "City": "RINGWOOD",
    "Postal Code": "3134",
    "Region": "VIC",
    "Country": "AUSTRALIA",
    "Latitude": -37.8051,
    "Longitude": 145.244,
    "Location Details": "AN ESTABLISHMENT WHERE A RANGE OF FUEL PRODUCTS CAN BE PURCHASED BY MOTORISTS",
    "Category": 3812407,
    "brand": [
      "CALTEX"
    ]
  },
  {
    "Station Name": "CALTEX AVENEL",
    "Address": "54 JONES STREET",
    "City": "AVENEL",
    "Postal Code": "3664",
    "Region": "VIC",
    "Country": "AUSTRALIA",
    "Latitude": -36.9075,
    "Longitude": 145.2396,
    "Location Details": "AN ESTABLISHMENT WHERE A RANGE OF FUEL PRODUCTS CAN BE PURCHASED BY MOTORISTS",
    "Category": 3812407,
    "brand": [
      "CALTEX"
    ]
  },
  {
    "Station Name": "INDEPENDENT WALWA",
    "Address": "54 MAIN STREET",
    "City": "WALWA",
    "Postal Code": "3709",
    "Region": "VIC",
    "Country": "AUSTRALIA",
    "Latitude": -35.9642,
    "Longitude": 147.7368,
    "Location Details": "AN ESTABLISHMENT WHERE A RANGE OF FUEL PRODUCTS CAN BE PURCHASED BY MOTORISTS",
    "Category": 3812407,
    "brand": [
      "CALTEX"
    ]
  },
  {
    "Station Name": "BP CLAYTON SOUTH",
    "Address": "729 HEATHERTON ROAD",
    "City": "CLAYTON SOUTH",
    "Postal Code": "3169",
    "Region": "VIC",
    "Country": "AUSTRALIA",
    "Latitude": -37.9602,
    "Longitude": 145.1363,
    "Location Details": "AN ESTABLISHMENT WHERE A RANGE OF FUEL PRODUCTS CAN BE PURCHASED BY MOTORISTS",
    "Category": 3812407,
    "brand": [
      "BP"
    ]
  },
  {
    "Station Name": "WANTIRNA SOUTH",
    "Address": "401 BURWOOD HIGHWAY",
    "City": "WNATIRNA SOUTH",
    "Postal Code": "3152",
    "Region": "VIC",
    "Country": "AUSTRALIA",
    "Latitude": -37.8686,
    "Longitude": 145.2361,
    "Location Details": "AN ESTABLISHMENT WHERE A RANGE OF FUEL PRODUCTS CAN BE PURCHASED BY MOTORISTS",
    "Category": 3812407,
    "brand": [
      "7-ELEVEN PTY LTD"
    ]
  },
  {
    "Station Name": "COLES EXPRESS BALWYN",
    "Address": "449 WHITEHORSE ROAD",
    "City": "BALWYN",
    "Postal Code": "3103",
    "Region": "VIC",
    "Country": "AUSTRALIA",
    "Latitude": -37.813,
    "Longitude": 145.086,
    "Location Details": "AN ESTABLISHMENT WHERE A RANGE OF FUEL PRODUCTS CAN BE PURCHASED BY MOTORISTS",
    "Category": 3812407,
    "brand": [
      "SHELL"
    ]
  },
  {
    "Station Name": "ORBOST",
    "Address": "89 SALISBURY STREET",
    "City": "ORBOST",
    "Postal Code": "3888",
    "Region": "VIC",
    "Country": "AUSTRALIA",
    "Latitude": -37.7056,
    "Longitude": 148.4645,
    "Location Details": "AN ESTABLISHMENT WHERE A RANGE OF FUEL PRODUCTS CAN BE PURCHASED BY MOTORISTS",
    "Category": 3812407,
    "brand": [
      "UNITED"
    ]
  },
  {
    "Station Name": "SAFEWAY CALTEX SHEPPARTON EAST",
    "Address": "106 BENALLA ROAD",
    "City": "SHEPPARTON",
    "Postal Code": "3630",
    "Region": "VIC",
    "Country": "AUSTRALIA",
    "Latitude": -36.3867,
    "Longitude": 145.4239,
    "Location Details": "AN ESTABLISHMENT WHERE A RANGE OF FUEL PRODUCTS CAN BE PURCHASED BY MOTORISTS",
    "Category": 3812407,
    "brand": [
      "CALTEX"
    ]
  },
  {
    "Station Name": "COLES EXPRESS DAYLESFORD",
    "Address": "47 RAGLAN STREET",
    "City": "DAYLESFORD",
    "Postal Code": "3460",
    "Region": "VIC",
    "Country": "AUSTRALIA",
    "Latitude": -37.3396,
    "Longitude": 144.1467,
    "Location Details": "AN ESTABLISHMENT WHERE A RANGE OF FUEL PRODUCTS CAN BE PURCHASED BY MOTORISTS",
    "Category": 3812407,
    "brand": [
      "SHELL"
    ]
  },
  {
    "Station Name": "CALTEX IRYMPLE",
    "Address": "2090 FIFTEENTH STREET",
    "City": "IRYMPLE",
    "Postal Code": "3498",
    "Region": "VIC",
    "Country": "AUSTRALIA",
    "Latitude": -34.2314,
    "Longitude": 142.1653,
    "Location Details": "AN ESTABLISHMENT WHERE A RANGE OF FUEL PRODUCTS CAN BE PURCHASED BY MOTORISTS",
    "Category": 3812407,
    "brand": [
      "CALTEX"
    ]
  },
  {
    "Station Name": "SUNBURY",
    "Address": "47 GAP ROAD",
    "City": "SUNBURY",
    "Postal Code": "3429",
    "Region": "VIC",
    "Country": "AUSTRALIA",
    "Latitude": -37.5798,
    "Longitude": 144.7217,
    "Location Details": "AN ESTABLISHMENT WHERE A RANGE OF FUEL PRODUCTS CAN BE PURCHASED BY MOTORISTS",
    "Category": 3812407,
    "brand": [
      "UNITED"
    ]
  },
  {
    "Station Name": "ALPINE",
    "Address": "233 MYRTLE STREET",
    "City": "MYRTLEFORD",
    "Postal Code": "3737",
    "Region": "VIC",
    "Country": "AUSTRALIA",
    "Latitude": -36.5565,
    "Longitude": 146.716,
    "Location Details": "AN ESTABLISHMENT WHERE A RANGE OF FUEL PRODUCTS CAN BE PURCHASED BY MOTORISTS",
    "Category": 3812407,
    "brand": [
      "SHELL"
    ]
  },
  {
    "Station Name": "INDEPENDENT LOCH",
    "Address": "29 VICTORIA ROAD",
    "City": "LOCH",
    "Postal Code": "3945",
    "Region": "VIC",
    "Country": "AUSTRALIA",
    "Latitude": -38.3684,
    "Longitude": 145.7063,
    "Location Details": "AN ESTABLISHMENT WHERE A RANGE OF FUEL PRODUCTS CAN BE PURCHASED BY MOTORISTS",
    "Category": 3812407,
    "brand": [
      "INDEPENDENT FUEL SUPPLIES"
    ]
  },
  {
    "Station Name": "COLES EXPRESS ANGLESEA",
    "Address": "107 GREAT OCEAN ROAD",
    "City": "ANGLESEA",
    "Postal Code": "3230",
    "Region": "VIC",
    "Country": "AUSTRALIA",
    "Latitude": -38.4086,
    "Longitude": 144.1862,
    "Location Details": "AN ESTABLISHMENT WHERE A RANGE OF FUEL PRODUCTS CAN BE PURCHASED BY MOTORISTS",
    "Category": 3812407,
    "brand": [
      "SHELL"
    ]
  },
  {
    "Station Name": "BP 2GO TALLY HO",
    "Address": "510 HIGHBURY ROAD",
    "City": "GLEN WAVERLEY",
    "Postal Code": "3150",
    "Region": "VIC",
    "Country": "AUSTRALIA",
    "Latitude": -37.8603,
    "Longitude": 145.151,
    "Location Details": "AN ESTABLISHMENT WHERE A RANGE OF FUEL PRODUCTS CAN BE PURCHASED BY MOTORISTS",
    "Category": 3812407,
    "brand": [
      "BP"
    ]
  },
  {
    "Station Name": "CALTEX GISBORNE",
    "Address": "7 HAMILTON STREET",
    "City": "GISBORNE",
    "Postal Code": "3437",
    "Region": "VIC",
    "Country": "AUSTRALIA",
    "Latitude": -37.4886,
    "Longitude": 144.5926,
    "Location Details": "AN ESTABLISHMENT WHERE A RANGE OF FUEL PRODUCTS CAN BE PURCHASED BY MOTORISTS",
    "Category": 3812407,
    "brand": [
      "INDEPENDENT FUEL SUPPLIES"
    ]
  },
  {
    "Station Name": "CALTEX SWAN REACH",
    "Address": "2048 PRINCES HIGHWAY",
    "City": "SWAN REACH",
    "Postal Code": "3903",
    "Region": "VIC",
    "Country": "AUSTRALIA",
    "Latitude": -37.8228,
    "Longitude": 147.8599,
    "Location Details": "AN ESTABLISHMENT WHERE A RANGE OF FUEL PRODUCTS CAN BE PURCHASED BY MOTORISTS",
    "Category": 3812407,
    "brand": [
      "7-ELEVEN PTY LTD"
    ]
  },
  {
    "Station Name": "BAYSWATER",
    "Address": "477 DORSET ROAD",
    "City": "BAYSWATER",
    "Postal Code": "3153",
    "Region": "VIC",
    "Country": "AUSTRALIA",
    "Latitude": -37.835,
    "Longitude": 145.2868,
    "Location Details": "AN ESTABLISHMENT WHERE A RANGE OF FUEL PRODUCTS CAN BE PURCHASED BY MOTORISTS",
    "Category": 3812407,
    "brand": [
      "UNITED"
    ]
  },
  {
    "Station Name": "SHELL BYRNESIDE",
    "Address": "5389 MIDLAND HIGHWAY",
    "City": "BYRNESIDE",
    "Postal Code": "3617",
    "Region": "VIC",
    "Country": "AUSTRALIA",
    "Latitude": -36.4204,
    "Longitude": 145.1745,
    "Location Details": "AN ESTABLISHMENT WHERE A RANGE OF FUEL PRODUCTS CAN BE PURCHASED BY MOTORISTS",
    "Category": 3812407,
    "brand": [
      "SHELL"
    ]
  },
  {
    "Station Name": "KINGSTON GARAGE",
    "Address": "61 KINGSTON ROAD",
    "City": "HEATHERTON",
    "Postal Code": "3202",
    "Region": "VIC",
    "Country": "AUSTRALIA",
    "Latitude": -37.9538,
    "Longitude": 145.085,
    "Location Details": "AN ESTABLISHMENT WHERE A RANGE OF FUEL PRODUCTS CAN BE PURCHASED BY MOTORISTS",
    "Category": 3812407,
    "brand": [
      "SHELL"
    ]
  },
  {
    "Station Name": "ST ALBANS NORTH",
    "Address": "33-37 TAYLORS ROAD",
    "City": "ST ALBANS",
    "Postal Code": "3021",
    "Region": "VIC",
    "Country": "AUSTRALIA",
    "Latitude": -37.7295,
    "Longitude": 144.8104,
    "Location Details": "AN ESTABLISHMENT WHERE A RANGE OF FUEL PRODUCTS CAN BE PURCHASED BY MOTORISTS",
    "Category": 3812407,
    "brand": [
      "7-ELEVEN PTY LTD"
    ]
  },
  {
    "Station Name": "BP BALACLAVA",
    "Address": "308 CARLISLE STREET",
    "City": "BALACLAVA",
    "Postal Code": "3183",
    "Region": "VIC",
    "Country": "AUSTRALIA",
    "Latitude": -37.8687,
    "Longitude": 144.9947,
    "Location Details": "AN ESTABLISHMENT WHERE A RANGE OF FUEL PRODUCTS CAN BE PURCHASED BY MOTORISTS",
    "Category": 3812407,
    "brand": [
      "BP"
    ]
  },
  {
    "Station Name": "COLES EXPRESS SPOTSWOOD",
    "Address": "642 MELBOURNE ROAD",
    "City": "SPOTSWOOD",
    "Postal Code": "3015",
    "Region": "VIC",
    "Country": "AUSTRALIA",
    "Latitude": -37.8276,
    "Longitude": 144.8814,
    "Location Details": "AN ESTABLISHMENT WHERE A RANGE OF FUEL PRODUCTS CAN BE PURCHASED BY MOTORISTS",
    "Category": 3812407,
    "brand": [
      "SHELL"
    ]
  },
  {
    "Station Name": "CALTEX SEBASTOPOL",
    "Address": "76 ALBERT STREET",
    "City": "SEBASTOPOL",
    "Postal Code": "3356",
    "Region": "VIC",
    "Country": "AUSTRALIA",
    "Latitude": -37.5886,
    "Longitude": 143.8405,
    "Location Details": "AN ESTABLISHMENT WHERE A RANGE OF FUEL PRODUCTS CAN BE PURCHASED BY MOTORISTS",
    "Category": 3812407,
    "brand": [
      "CALTEX"
    ]
  },
  {
    "Station Name": "MOBIL COWES",
    "Address": "124 THOMPSON AVENUE",
    "City": "COWES",
    "Postal Code": "3922",
    "Region": "VIC",
    "Country": "AUSTRALIA",
    "Latitude": -38.4533,
    "Longitude": 145.2386,
    "Location Details": "AN ESTABLISHMENT WHERE A RANGE OF FUEL PRODUCTS CAN BE PURCHASED BY MOTORISTS",
    "Category": 3812407,
    "brand": [
      "7-ELEVEN PTY LTD"
    ]
  },
  {
    "Station Name": "SUPERSTOCK AUTO",
    "Address": "94 MOORE STREET",
    "City": "MOE",
    "Postal Code": "3825",
    "Region": "VIC",
    "Country": "AUSTRALIA",
    "Latitude": -38.166,
    "Longitude": 146.2625,
    "Location Details": "AN ESTABLISHMENT WHERE A RANGE OF FUEL PRODUCTS CAN BE PURCHASED BY MOTORISTS",
    "Category": 3812407,
    "brand": [
      "INDEPENDENT FUEL SUPPLIES"
    ]
  },
  {
    "Station Name": "SAFEWAY CALTEX KEYSBOROUGH",
    "Address": "745-751 SPRINGVALE ROAD",
    "City": "KEYSBOROUGH",
    "Postal Code": "3173",
    "Region": "VIC",
    "Country": "AUSTRALIA",
    "Latitude": -37.9865,
    "Longitude": 145.1461,
    "Location Details": "AN ESTABLISHMENT WHERE A RANGE OF FUEL PRODUCTS CAN BE PURCHASED BY MOTORISTS",
    "Category": 3812407,
    "brand": [
      "CALTEX"
    ]
  },
  {
    "Station Name": "WARNERS",
    "Address": "163 LLOYD STREET",
    "City": "DIMBOOLA",
    "Postal Code": "3414",
    "Region": "VIC",
    "Country": "AUSTRALIA",
    "Latitude": -36.4494,
    "Longitude": 142.0231,
    "Location Details": "AN ESTABLISHMENT WHERE A RANGE OF FUEL PRODUCTS CAN BE PURCHASED BY MOTORISTS",
    "Category": 3812407,
    "brand": [
      "BP"
    ]
  },
  {
    "Station Name": "FAIRFIELD",
    "Address": "324 STATION STREET",
    "City": "FAIRFIELD",
    "Postal Code": "3078",
    "Region": "VIC",
    "Country": "AUSTRALIA",
    "Latitude": -37.7657,
    "Longitude": 145.0201,
    "Location Details": "AN ESTABLISHMENT WHERE A RANGE OF FUEL PRODUCTS CAN BE PURCHASED BY MOTORISTS",
    "Category": 3812407,
    "brand": [
      "7-ELEVEN PTY LTD"
    ]
  },
  {
    "Station Name": "WOODSIDE",
    "Address": "66 HIGH STREET",
    "City": "WOODSIDE",
    "Postal Code": "3874",
    "Region": "VIC",
    "Country": "AUSTRALIA",
    "Latitude": -38.5243,
    "Longitude": 146.8746,
    "Location Details": "AN ESTABLISHMENT WHERE A RANGE OF FUEL PRODUCTS CAN BE PURCHASED BY MOTORISTS",
    "Category": 3812407,
    "brand": [
      "SHELL"
    ]
  },
  {
    "Station Name": "MOBIL COHUNA",
    "Address": "183 KING GEORGE STREET",
    "City": "COHUNA",
    "Postal Code": "3568",
    "Region": "VIC",
    "Country": "AUSTRALIA",
    "Latitude": -35.7995,
    "Longitude": 144.2126,
    "Location Details": "AN ESTABLISHMENT WHERE A RANGE OF FUEL PRODUCTS CAN BE PURCHASED BY MOTORISTS",
    "Category": 3812407,
    "brand": [
      "7-ELEVEN PTY LTD"
    ]
  },
  {
    "Station Name": "YALLAMBIE",
    "Address": "371 LOWER PLENTY ROAD",
    "City": "YALLAMBIE",
    "Postal Code": "3085",
    "Region": "VIC",
    "Country": "AUSTRALIA",
    "Latitude": -37.7311,
    "Longitude": 145.0857,
    "Location Details": "AN ESTABLISHMENT WHERE A RANGE OF FUEL PRODUCTS CAN BE PURCHASED BY MOTORISTS",
    "Category": 3812407,
    "brand": [
      "7-ELEVEN PTY LTD"
    ]
  },
  {
    "Station Name": "MOBIL MORWELL",
    "Address": "271-275 PRINCES DRIVE",
    "City": "MORWELL",
    "Postal Code": "3840",
    "Region": "VIC",
    "Country": "AUSTRALIA",
    "Latitude": -38.2382,
    "Longitude": 146.4054,
    "Location Details": "AN ESTABLISHMENT WHERE A RANGE OF FUEL PRODUCTS CAN BE PURCHASED BY MOTORISTS",
    "Category": 3812407,
    "brand": [
      "INDEPENDENT FUEL SUPPLIES"
    ]
  },
  {
    "Station Name": "INDEPENDENT WANGARATTA",
    "Address": "73-75 GRETA ROAD",
    "City": "WANGARATTA",
    "Postal Code": "3677",
    "Region": "VIC",
    "Country": "AUSTRALIA",
    "Latitude": -36.3699,
    "Longitude": 146.3136,
    "Location Details": "AN ESTABLISHMENT WHERE A RANGE OF FUEL PRODUCTS CAN BE PURCHASED BY MOTORISTS",
    "Category": 3812407,
    "brand": [
      "INDEPENDENT FUEL SUPPLIES"
    ]
  },
  {
    "Station Name": "CALTEX WALLAN",
    "Address": "130-132 HIGH STREET",
    "City": "WALLAN",
    "Postal Code": "3756",
    "Region": "VIC",
    "Country": "AUSTRALIA",
    "Latitude": -37.4089,
    "Longitude": 144.9804,
    "Location Details": "AN ESTABLISHMENT WHERE A RANGE OF FUEL PRODUCTS CAN BE PURCHASED BY MOTORISTS",
    "Category": 3812407,
    "brand": [
      "CALTEX"
    ]
  },
  {
    "Station Name": "CALTEX COBDEN",
    "Address": "1 CURDIE STREET",
    "City": "COBDEN",
    "Postal Code": "3266",
    "Region": "VIC",
    "Country": "AUSTRALIA",
    "Latitude": -38.3291,
    "Longitude": 143.0796,
    "Location Details": "AN ESTABLISHMENT WHERE A RANGE OF FUEL PRODUCTS CAN BE PURCHASED BY MOTORISTS",
    "Category": 3812407,
    "brand": [
      "CALTEX"
    ]
  },
  {
    "Station Name": "OFFICER",
    "Address": "397-401 PRINCES HIGHWAY",
    "City": "OFFICER",
    "Postal Code": "3809",
    "Region": "VIC",
    "Country": "AUSTRALIA",
    "Latitude": -38.0592,
    "Longitude": 145.4066,
    "Location Details": "AN ESTABLISHMENT WHERE A RANGE OF FUEL PRODUCTS CAN BE PURCHASED BY MOTORISTS",
    "Category": 3812407,
    "brand": [
      "7-ELEVEN PTY LTD"
    ]
  },
  {
    "Station Name": "ROBERT COX MOTORS",
    "Address": "51 HIGH STREET",
    "City": "MALDON",
    "Postal Code": "3463",
    "Region": "VIC",
    "Country": "AUSTRALIA",
    "Latitude": -36.9985,
    "Longitude": 144.0682,
    "Location Details": "AN ESTABLISHMENT WHERE A RANGE OF FUEL PRODUCTS CAN BE PURCHASED BY MOTORISTS",
    "Category": 3812407,
    "brand": [
      "INDEPENDENT FUEL SUPPLIES"
    ]
  },
  {
    "Station Name": "CALTEX LAVERTON NORTH",
    "Address": "29-31 LITTLE BOUNDARY ROAD",
    "City": "LAVERTON NORTH",
    "Postal Code": "3026",
    "Region": "VIC",
    "Country": "AUSTRALIA",
    "Latitude": -37.8195,
    "Longitude": 144.819,
    "Location Details": "AN ESTABLISHMENT WHERE A RANGE OF FUEL PRODUCTS CAN BE PURCHASED BY MOTORISTS",
    "Category": 3812407,
    "brand": [
      "CALTEX"
    ]
  },
  {
    "Station Name": "CALTEX TORQUAY",
    "Address": "55 GEELONG ROAD",
    "City": "TORQUAY",
    "Postal Code": "3228",
    "Region": "VIC",
    "Country": "AUSTRALIA",
    "Latitude": -38.3292,
    "Longitude": 144.3165,
    "Location Details": "AN ESTABLISHMENT WHERE A RANGE OF FUEL PRODUCTS CAN BE PURCHASED BY MOTORISTS",
    "Category": 3812407,
    "brand": [
      "CALTEX"
    ]
  },
  {
    "Station Name": "COLES EXPRESS MELTON SOUTH",
    "Address": "1-9 STATION ROAD",
    "City": "MELTON SOUTH",
    "Postal Code": "3338",
    "Region": "VIC",
    "Country": "AUSTRALIA",
    "Latitude": -37.7027,
    "Longitude": 144.5747,
    "Location Details": "AN ESTABLISHMENT WHERE A RANGE OF FUEL PRODUCTS CAN BE PURCHASED BY MOTORISTS",
    "Category": 3812407,
    "brand": [
      "SHELL"
    ]
  },
  {
    "Station Name": "CALTEX AVONDALE HEIGHTS",
    "Address": "160 MILITARY ROAD",
    "City": "AVONDALE HEIGHTS",
    "Postal Code": "3034",
    "Region": "VIC",
    "Country": "AUSTRALIA",
    "Latitude": -37.7559,
    "Longitude": 144.8597,
    "Location Details": "AN ESTABLISHMENT WHERE A RANGE OF FUEL PRODUCTS CAN BE PURCHASED BY MOTORISTS",
    "Category": 3812407,
    "brand": [
      "CALTEX"
    ]
  },
  {
    "Station Name": "BP BENTLEIGH",
    "Address": "58 PATTERSON ROAD",
    "City": "BENTLEIGH",
    "Postal Code": "3204",
    "Region": "VIC",
    "Country": "AUSTRALIA",
    "Latitude": -37.9256,
    "Longitude": 145.033,
    "Location Details": "AN ESTABLISHMENT WHERE A RANGE OF FUEL PRODUCTS CAN BE PURCHASED BY MOTORISTS",
    "Category": 3812407,
    "brand": [
      "INDEPENDENT FUEL SUPPLIES"
    ]
  },
  {
    "Station Name": "BRUNSWICK WEST MELVILLE",
    "Address": "134-136 MELVILLE ROAD",
    "City": "BRUNSWICK WEST",
    "Postal Code": "3055",
    "Region": "VIC",
    "Country": "AUSTRALIA",
    "Latitude": -37.7597,
    "Longitude": 144.945,
    "Location Details": "AN ESTABLISHMENT WHERE A RANGE OF FUEL PRODUCTS CAN BE PURCHASED BY MOTORISTS",
    "Category": 3812407,
    "brand": [
      "UNITED"
    ]
  },
  {
    "Station Name": "CALTEX SAFEWAY BOX HILL",
    "Address": "793-797 WHITEHORSE ROAD",
    "City": "BOX HILL",
    "Postal Code": "3127",
    "Region": "VIC",
    "Country": "AUSTRALIA",
    "Latitude": -37.8161,
    "Longitude": 145.1109,
    "Location Details": "AN ESTABLISHMENT WHERE A RANGE OF FUEL PRODUCTS CAN BE PURCHASED BY MOTORISTS",
    "Category": 3812407,
    "brand": [
      "CALTEX"
    ]
  },
  {
    "Station Name": "CALTEX",
    "Address": "7 BRADFORD STREET",
    "City": "WODONGA",
    "Postal Code": "3690",
    "Region": "VIC",
    "Country": "AUSTRALIA",
    "Latitude": -36.1172,
    "Longitude": 146.8972,
    "Location Details": "AN ESTABLISHMENT WHERE A RANGE OF FUEL PRODUCTS CAN BE PURCHASED BY MOTORISTS",
    "Category": 3812407,
    "brand": [
      "CALTEX"
    ]
  },
  {
    "Station Name": "MOBIL TRARALGON",
    "Address": "6 SHAKESPEARE STREET",
    "City": "TRARALGON",
    "Postal Code": "3844",
    "Region": "VIC",
    "Country": "AUSTRALIA",
    "Latitude": -38.2005,
    "Longitude": 146.5354,
    "Location Details": "AN ESTABLISHMENT WHERE A RANGE OF FUEL PRODUCTS CAN BE PURCHASED BY MOTORISTS",
    "Category": 3812407,
    "brand": [
      "HORIZON"
    ]
  },
  {
    "Station Name": "7 ELEVEN HOPPERS CROSSING",
    "Address": "380 MORRIS ROAD",
    "City": "HOPPERS CROSSING",
    "Postal Code": "3029",
    "Region": "VIC",
    "Country": "AUSTRALIA",
    "Latitude": -37.8509,
    "Longitude": 144.7068,
    "Location Details": "AN ESTABLISHMENT WHERE A RANGE OF FUEL PRODUCTS CAN BE PURCHASED BY MOTORISTS",
    "Category": 3812407,
    "brand": [
      "7-ELEVEN PTY LTD"
    ]
  },
  {
    "Station Name": "CALTEX WAHGUNYAH",
    "Address": "24 FOORD STREET",
    "City": "WAHGUNYAH",
    "Postal Code": "3687",
    "Region": "VIC",
    "Country": "AUSTRALIA",
    "Latitude": -36.0098,
    "Longitude": 146.3943,
    "Location Details": "AN ESTABLISHMENT WHERE A RANGE OF FUEL PRODUCTS CAN BE PURCHASED BY MOTORISTS",
    "Category": 3812407,
    "brand": [
      "CALTEX"
    ]
  },
  {
    "Station Name": "BP WURRUK",
    "Address": "17 PRINCES HIGHWAY",
    "City": "WURRUK",
    "Postal Code": "3850",
    "Region": "VIC",
    "Country": "AUSTRALIA",
    "Latitude": -38.1121,
    "Longitude": 147.042,
    "Location Details": "AN ESTABLISHMENT WHERE A RANGE OF FUEL PRODUCTS CAN BE PURCHASED BY MOTORISTS",
    "Category": 3812407,
    "brand": [
      "BP"
    ]
  },
  {
    "Station Name": "MOBIL CLUNES",
    "Address": "7 SERVICE STREET",
    "City": "CLUNES",
    "Postal Code": "3370",
    "Region": "VIC",
    "Country": "AUSTRALIA",
    "Latitude": -37.2952,
    "Longitude": 143.7867,
    "Location Details": "AN ESTABLISHMENT WHERE A RANGE OF FUEL PRODUCTS CAN BE PURCHASED BY MOTORISTS",
    "Category": 3812407,
    "brand": [
      "7-ELEVEN PTY LTD"
    ]
  },
  {
    "Station Name": "SAFEWAY CALTEX FOREST HILL",
    "Address": "260 CANTERBURY ROAD",
    "City": "FOREST HILL",
    "Postal Code": "3131",
    "Region": "VIC",
    "Country": "AUSTRALIA",
    "Latitude": -37.8343,
    "Longitude": 145.1637,
    "Location Details": "AN ESTABLISHMENT WHERE A RANGE OF FUEL PRODUCTS CAN BE PURCHASED BY MOTORISTS",
    "Category": 3812407,
    "brand": [
      "CALTEX"
    ]
  },
  {
    "Station Name": "CALTEX BURNSIDE",
    "Address": "970 WESTERN HIGHWAY",
    "City": "BURNSIDE",
    "Postal Code": "3023",
    "Region": "VIC",
    "Country": "AUSTRALIA",
    "Latitude": -37.7626,
    "Longitude": 144.7569,
    "Location Details": "AN ESTABLISHMENT WHERE A RANGE OF FUEL PRODUCTS CAN BE PURCHASED BY MOTORISTS",
    "Category": 3812407,
    "brand": [
      "CALTEX"
    ]
  },
  {
    "Station Name": "BP ROCHESTER",
    "Address": "22 RAMSAY STREET",
    "City": "ROCHESTER",
    "Postal Code": "3561",
    "Region": "VIC",
    "Country": "AUSTRALIA",
    "Latitude": -36.3603,
    "Longitude": 144.6985,
    "Location Details": "AN ESTABLISHMENT WHERE A RANGE OF FUEL PRODUCTS CAN BE PURCHASED BY MOTORISTS",
    "Category": 3812407,
    "brand": [
      "BP"
    ]
  },
  {
    "Station Name": "MOBIL WHITFIELD",
    "Address": "4883 WANGARATTA-WHITFIELD ROAD",
    "City": "WHITFIELD",
    "Postal Code": "3733",
    "Region": "VIC",
    "Country": "AUSTRALIA",
    "Latitude": -36.7639,
    "Longitude": 146.4149,
    "Location Details": "AN ESTABLISHMENT WHERE A RANGE OF FUEL PRODUCTS CAN BE PURCHASED BY MOTORISTS",
    "Category": 3812407,
    "brand": [
      "7-ELEVEN PTY LTD"
    ]
  },
  {
    "Station Name": "SAFEWAY CALTEX DANDENONG SOUTH",
    "Address": "25 SOUTH GIPPSLAND HIGHWAY",
    "City": "DANDENONG SOUTH",
    "Postal Code": "3175",
    "Region": "VIC",
    "Country": "AUSTRALIA",
    "Latitude": -38.0027,
    "Longitude": 145.227,
    "Location Details": "AN ESTABLISHMENT WHERE A RANGE OF FUEL PRODUCTS CAN BE PURCHASED BY MOTORISTS",
    "Category": 3812407,
    "brand": [
      "CALTEX"
    ]
  },
  {
    "Station Name": "BP  SPRINGVALE SOUTH",
    "Address": "580-582 SPRINGVALE ROAD",
    "City": "SPRINGVALE SOUTH",
    "Postal Code": "3172",
    "Region": "VIC",
    "Country": "AUSTRALIA",
    "Latitude": -37.9777,
    "Longitude": 145.1467,
    "Location Details": "AN ESTABLISHMENT WHERE A RANGE OF FUEL PRODUCTS CAN BE PURCHASED BY MOTORISTS",
    "Category": 3812407,
    "brand": [
      "BP"
    ]
  },
  {
    "Station Name": "SUNSHINE NORTH",
    "Address": "45 MCINTYRE ROAD",
    "City": "SUNSHINE NORTH",
    "Postal Code": "3020",
    "Region": "VIC",
    "Country": "AUSTRALIA",
    "Latitude": -37.773,
    "Longitude": 144.8293,
    "Location Details": "AN ESTABLISHMENT WHERE A RANGE OF FUEL PRODUCTS CAN BE PURCHASED BY MOTORISTS",
    "Category": 3812407,
    "brand": [
      "UNITED"
    ]
  },
  {
    "Station Name": "DINGLEY",
    "Address": "277-283 CENTRE DANDENONG ROAD",
    "City": "DINGLEY",
    "Postal Code": "3172",
    "Region": "VIC",
    "Country": "AUSTRALIA",
    "Latitude": -37.9735,
    "Longitude": 145.1207,
    "Location Details": "AN ESTABLISHMENT WHERE A RANGE OF FUEL PRODUCTS CAN BE PURCHASED BY MOTORISTS",
    "Category": 3812407,
    "brand": [
      "7-ELEVEN PTY LTD"
    ]
  },
  {
    "Station Name": "MOBIL BAIRNSDALE",
    "Address": "390 MAIN STREET",
    "City": "BAIRNSDALE",
    "Postal Code": "3875",
    "Region": "VIC",
    "Country": "AUSTRALIA",
    "Latitude": -37.8284,
    "Longitude": 147.6186,
    "Location Details": "AN ESTABLISHMENT WHERE A RANGE OF FUEL PRODUCTS CAN BE PURCHASED BY MOTORISTS",
    "Category": 3812407,
    "brand": [
      "7-ELEVEN PTY LTD"
    ]
  },
  {
    "Station Name": "NORTH ARM AUTO & MARINE",
    "Address": "66 MARINE PARADE",
    "City": "LAKES ENTRANCE",
    "Postal Code": "3909",
    "Region": "VIC",
    "Country": "AUSTRALIA",
    "Latitude": -37.881,
    "Longitude": 147.9772,
    "Location Details": "AN ESTABLISHMENT WHERE A RANGE OF FUEL PRODUCTS CAN BE PURCHASED BY MOTORISTS",
    "Category": 3812407,
    "brand": [
      "SHELL"
    ]
  },
  {
    "Station Name": "MULGRAVE",
    "Address": "2223-2225 DANDENONG ROAD",
    "City": "MULGRAVE",
    "Postal Code": "3170",
    "Region": "VIC",
    "Country": "AUSTRALIA",
    "Latitude": -37.9278,
    "Longitude": 145.1494,
    "Location Details": "AN ESTABLISHMENT WHERE A RANGE OF FUEL PRODUCTS CAN BE PURCHASED BY MOTORISTS",
    "Category": 3812407,
    "brand": [
      "UNITED"
    ]
  },
  {
    "Station Name": "CALTEX LILYDALE",
    "Address": "346-348 MAIN STREET",
    "City": "LILYDALE",
    "Postal Code": "3140",
    "Region": "VIC",
    "Country": "AUSTRALIA",
    "Latitude": -37.7579,
    "Longitude": 145.3552,
    "Location Details": "AN ESTABLISHMENT WHERE A RANGE OF FUEL PRODUCTS CAN BE PURCHASED BY MOTORISTS",
    "Category": 3812407,
    "brand": [
      "CALTEX"
    ]
  },
  {
    "Station Name": "COLES EXPRESS KNOX PARK",
    "Address": "1662 FERNTREE GULLY ROAD",
    "City": "KNOXFIELD",
    "Postal Code": "3180",
    "Region": "VIC",
    "Country": "AUSTRALIA",
    "Latitude": -37.8926,
    "Longitude": 145.2574,
    "Location Details": "AN ESTABLISHMENT WHERE A RANGE OF FUEL PRODUCTS CAN BE PURCHASED BY MOTORISTS",
    "Category": 3812407,
    "brand": [
      "SHELL"
    ]
  },
  {
    "Station Name": "SAFEWAY CALTEX HAMILTON",
    "Address": "93 FRENCH STREET",
    "City": "HAMILTON",
    "Postal Code": "3300",
    "Region": "VIC",
    "Country": "AUSTRALIA",
    "Latitude": -37.7445,
    "Longitude": 142.0258,
    "Location Details": "AN ESTABLISHMENT WHERE A RANGE OF FUEL PRODUCTS CAN BE PURCHASED BY MOTORISTS",
    "Category": 3812407,
    "brand": [
      "CALTEX"
    ]
  },
  {
    "Station Name": "BP CONNECT SEAVIEW",
    "Address": "2233 POINT NEPEAN ROAD",
    "City": "RYE",
    "Postal Code": "3941",
    "Region": "VIC",
    "Country": "AUSTRALIA",
    "Latitude": -38.3713,
    "Longitude": 144.8275,
    "Location Details": "AN ESTABLISHMENT WHERE A RANGE OF FUEL PRODUCTS CAN BE PURCHASED BY MOTORISTS",
    "Category": 3812407,
    "brand": [
      "BP"
    ]
  },
  {
    "Station Name": "EUROKA",
    "Address": "134 GEORGE STREET",
    "City": "MORWELL",
    "Postal Code": "3840",
    "Region": "VIC",
    "Country": "AUSTRALIA",
    "Latitude": -38.2391,
    "Longitude": 146.3996,
    "Location Details": "AN ESTABLISHMENT WHERE A RANGE OF FUEL PRODUCTS CAN BE PURCHASED BY MOTORISTS",
    "Category": 3812407,
    "brand": [
      "INDEPENDENT FUEL SUPPLIES"
    ]
  },
  {
    "Station Name": "I & M SIMPSON & SON PTY LTD",
    "Address": "25 AITKEN STREET",
    "City": "ALEXANDRA",
    "Postal Code": "3714",
    "Region": "VIC",
    "Country": "AUSTRALIA",
    "Latitude": -37.1875,
    "Longitude": 145.7029,
    "Location Details": "AN ESTABLISHMENT WHERE A RANGE OF FUEL PRODUCTS CAN BE PURCHASED BY MOTORISTS",
    "Category": 3812407,
    "brand": [
      "CALTEX"
    ]
  },
  {
    "Station Name": "SAFEWAY CALTEX ROWVILLE",
    "Address": "1180 STUD ROAD",
    "City": "ROWVILLE",
    "Postal Code": "3178",
    "Region": "VIC",
    "Country": "AUSTRALIA",
    "Latitude": -37.9261,
    "Longitude": 145.2329,
    "Location Details": "AN ESTABLISHMENT WHERE A RANGE OF FUEL PRODUCTS CAN BE PURCHASED BY MOTORISTS",
    "Category": 3812407,
    "brand": [
      "CALTEX"
    ]
  },
  {
    "Station Name": "BP POULTONS GARAGE",
    "Address": "70 MAIN ROAD",
    "City": "RIDDELLS CREEK",
    "Postal Code": "3431",
    "Region": "VIC",
    "Country": "AUSTRALIA",
    "Latitude": -37.4628,
    "Longitude": 144.6758,
    "Location Details": "AN ESTABLISHMENT WHERE A RANGE OF FUEL PRODUCTS CAN BE PURCHASED BY MOTORISTS",
    "Category": 3812407,
    "brand": [
      "INDEPENDENT FUEL SUPPLIES"
    ]
  },
  {
    "Station Name": "CALTEX BENDIGO",
    "Address": "68 CARPENTER STREET",
    "City": "BENDIGO",
    "Postal Code": "3550",
    "Region": "VIC",
    "Country": "AUSTRALIA",
    "Latitude": -36.7758,
    "Longitude": 144.2849,
    "Location Details": "AN ESTABLISHMENT WHERE A RANGE OF FUEL PRODUCTS CAN BE PURCHASED BY MOTORISTS",
    "Category": 3812407,
    "brand": [
      "7-ELEVEN PTY LTD"
    ]
  },
  {
    "Station Name": "COLES EXPRESS DALTON ROAD",
    "Address": "27 SPENCER STREET",
    "City": "THOMASTOWN",
    "Postal Code": "3074",
    "Region": "VIC",
    "Country": "AUSTRALIA",
    "Latitude": -37.6849,
    "Longitude": 145.0286,
    "Location Details": "AN ESTABLISHMENT WHERE A RANGE OF FUEL PRODUCTS CAN BE PURCHASED BY MOTORISTS",
    "Category": 3812407,
    "brand": [
      "SHELL"
    ]
  },
  {
    "Station Name": "CALTEX ARARAT",
    "Address": "8475 WESTERN HIGHWAY",
    "City": "ARARAT",
    "Postal Code": "3377",
    "Region": "VIC",
    "Country": "AUSTRALIA",
    "Latitude": -37.3039,
    "Longitude": 142.9857,
    "Location Details": "AN ESTABLISHMENT WHERE A RANGE OF FUEL PRODUCTS CAN BE PURCHASED BY MOTORISTS",
    "Category": 3812407,
    "brand": [
      "CALTEX"
    ]
  },
  {
    "Station Name": "PRINCI MOTORS",
    "Address": "273 MONBULK ROAD",
    "City": "SILVAN",
    "Postal Code": "3795",
    "Region": "VIC",
    "Country": "AUSTRALIA",
    "Latitude": -37.8255,
    "Longitude": 145.4219,
    "Location Details": "AN ESTABLISHMENT WHERE A RANGE OF FUEL PRODUCTS CAN BE PURCHASED BY MOTORISTS",
    "Category": 3812407,
    "brand": [
      "SHELL"
    ]
  },
  {
    "Station Name": "SAFEWAY CALTEX ECHUCA",
    "Address": "102 ANNESLEY STREET",
    "City": "ECHUCA",
    "Postal Code": "3564",
    "Region": "VIC",
    "Country": "AUSTRALIA",
    "Latitude": -36.1331,
    "Longitude": 144.7528,
    "Location Details": "AN ESTABLISHMENT WHERE A RANGE OF FUEL PRODUCTS CAN BE PURCHASED BY MOTORISTS",
    "Category": 3812407,
    "brand": [
      "CALTEX"
    ]
  },
  {
    "Station Name": "SAFEWAY CALTEX CRAIGIEBURN",
    "Address": "10 CRAIGIEBURN ROAD",
    "City": "CRAIGIEBURN",
    "Postal Code": "3064",
    "Region": "VIC",
    "Country": "AUSTRALIA",
    "Latitude": -37.5986,
    "Longitude": 144.9407,
    "Location Details": "AN ESTABLISHMENT WHERE A RANGE OF FUEL PRODUCTS CAN BE PURCHASED BY MOTORISTS",
    "Category": 3812407,
    "brand": [
      "CALTEX"
    ]
  },
  {
    "Station Name": "CALTEX COBRAM",
    "Address": "74 BROADWAY STREET",
    "City": "COBRAM",
    "Postal Code": "3644",
    "Region": "VIC",
    "Country": "AUSTRALIA",
    "Latitude": -35.9164,
    "Longitude": 145.6458,
    "Location Details": "AN ESTABLISHMENT WHERE A RANGE OF FUEL PRODUCTS CAN BE PURCHASED BY MOTORISTS",
    "Category": 3812407,
    "brand": [
      "CALTEX"
    ]
  },
  {
    "Station Name": "BP  FERNTREE GULLY",
    "Address": "855 BURWOOD HIGHWAY",
    "City": "FERNTREE GULLY",
    "Postal Code": "3156",
    "Region": "VIC",
    "Country": "AUSTRALIA",
    "Latitude": -37.8826,
    "Longitude": 145.2784,
    "Location Details": "AN ESTABLISHMENT WHERE A RANGE OF FUEL PRODUCTS CAN BE PURCHASED BY MOTORISTS",
    "Category": 3812407,
    "brand": [
      "BP"
    ]
  },
  {
    "Station Name": "R & P MATTHEWS PTY LTD",
    "Address": "1155 RAGLAN PARADE",
    "City": "WARRNAMBOOL",
    "Postal Code": "3280",
    "Region": "VIC",
    "Country": "AUSTRALIA",
    "Latitude": -38.364,
    "Longitude": 142.4582,
    "Location Details": "AN ESTABLISHMENT WHERE A RANGE OF FUEL PRODUCTS CAN BE PURCHASED BY MOTORISTS",
    "Category": 3812407,
    "brand": [
      "CALTEX"
    ]
  },
  {
    "Station Name": "CALTEX COBURG",
    "Address": "265 SYDNEY ROAD",
    "City": "COBURG",
    "Postal Code": "3058",
    "Region": "VIC",
    "Country": "AUSTRALIA",
    "Latitude": -37.7475,
    "Longitude": 144.9652,
    "Location Details": "AN ESTABLISHMENT WHERE A RANGE OF FUEL PRODUCTS CAN BE PURCHASED BY MOTORISTS",
    "Category": 3812407,
    "brand": [
      "CALTEX"
    ]
  },
  {
    "Station Name": "BP STRATFORD",
    "Address": "25 TYERS STREET",
    "City": "STRATFORD",
    "Postal Code": "3862",
    "Region": "VIC",
    "Country": "AUSTRALIA",
    "Latitude": -37.9681,
    "Longitude": 147.0792,
    "Location Details": "AN ESTABLISHMENT WHERE A RANGE OF FUEL PRODUCTS CAN BE PURCHASED BY MOTORISTS",
    "Category": 3812407,
    "brand": [
      "BP"
    ]
  },
  {
    "Station Name": "COLES EXPRESS VERMONT SOUTH",
    "Address": "485-493 BURWOOD HIGHWAY",
    "City": "VERMONT SOUTH",
    "Postal Code": "3133",
    "Region": "VIC",
    "Country": "AUSTRALIA",
    "Latitude": -37.8559,
    "Longitude": 145.1814,
    "Location Details": "AN ESTABLISHMENT WHERE A RANGE OF FUEL PRODUCTS CAN BE PURCHASED BY MOTORISTS",
    "Category": 3812407,
    "brand": [
      "SHELL"
    ]
  },
  {
    "Station Name": "CALTEX WENDOUREE",
    "Address": "921 HOWITT STREET",
    "City": "WENDOUREE",
    "Postal Code": "3355",
    "Region": "VIC",
    "Country": "AUSTRALIA",
    "Latitude": -37.5417,
    "Longitude": 143.8403,
    "Location Details": "AN ESTABLISHMENT WHERE A RANGE OF FUEL PRODUCTS CAN BE PURCHASED BY MOTORISTS",
    "Category": 3812407,
    "brand": [
      "CALTEX"
    ]
  },
  {
    "Station Name": "BP TAYLORS LAKES",
    "Address": "25 MELTON HIGHWAY",
    "City": "TAYLORS LAKES",
    "Postal Code": "3038",
    "Region": "VIC",
    "Country": "AUSTRALIA",
    "Latitude": -37.7013,
    "Longitude": 144.797,
    "Location Details": "AN ESTABLISHMENT WHERE A RANGE OF FUEL PRODUCTS CAN BE PURCHASED BY MOTORISTS",
    "Category": 3812407,
    "brand": [
      "BP"
    ]
  },
  {
    "Station Name": "CALTEX DONCASTER EAST",
    "Address": "1100 DONCASTER ROAD",
    "City": "DONCASTER EAST",
    "Postal Code": "3109",
    "Region": "VIC",
    "Country": "AUSTRALIA",
    "Latitude": -37.7903,
    "Longitude": 145.1706,
    "Location Details": "AN ESTABLISHMENT WHERE A RANGE OF FUEL PRODUCTS CAN BE PURCHASED BY MOTORISTS",
    "Category": 3812407,
    "brand": [
      "CALTEX"
    ]
  },
  {
    "Station Name": "CALTEX HILLSIDE",
    "Address": "575 MELTON HIGHWAY",
    "City": "HILLSIDE",
    "Postal Code": "3037",
    "Region": "VIC",
    "Country": "AUSTRALIA",
    "Latitude": -37.694,
    "Longitude": 144.7558,
    "Location Details": "AN ESTABLISHMENT WHERE A RANGE OF FUEL PRODUCTS CAN BE PURCHASED BY MOTORISTS",
    "Category": 3812407,
    "brand": [
      "CALTEX"
    ]
  },
  {
    "Station Name": "COLES EXPRESS PENINSULA GATEWAY",
    "Address": "231 FRANKSTON-FLINDERS ROAD",
    "City": "FRANKSTON SOUTH",
    "Postal Code": "3199",
    "Region": "VIC",
    "Country": "AUSTRALIA",
    "Latitude": -38.1744,
    "Longitude": 145.14,
    "Location Details": "AN ESTABLISHMENT WHERE A RANGE OF FUEL PRODUCTS CAN BE PURCHASED BY MOTORISTS",
    "Category": 3812407,
    "brand": [
      "SHELL"
    ]
  },
  {
    "Station Name": "INDEPENDENT EVERTON",
    "Address": "2128 GREAT ALPINE ROAD",
    "City": "EVERTON",
    "Postal Code": "3678",
    "Region": "VIC",
    "Country": "AUSTRALIA",
    "Latitude": -36.4336,
    "Longitude": 146.5423,
    "Location Details": "AN ESTABLISHMENT WHERE A RANGE OF FUEL PRODUCTS CAN BE PURCHASED BY MOTORISTS",
    "Category": 3812407,
    "brand": [
      "INDEPENDENT FUEL SUPPLIES"
    ]
  },
  {
    "Station Name": "JOHNSONS GARAGE",
    "Address": "40 WESTERN ROAD",
    "City": "COHUNA",
    "Postal Code": "3568",
    "Region": "VIC",
    "Country": "AUSTRALIA",
    "Latitude": -35.8054,
    "Longitude": 144.2094,
    "Location Details": "AN ESTABLISHMENT WHERE A RANGE OF FUEL PRODUCTS CAN BE PURCHASED BY MOTORISTS",
    "Category": 3812407,
    "brand": [
      "SHELL"
    ]
  },
  {
    "Station Name": "COLES EXPRESS FERNTREE GULLY",
    "Address": "1140 BURWOOD HIGHWAY",
    "City": "FERNTREE GULLY",
    "Postal Code": "3156",
    "Region": "VIC",
    "Country": "AUSTRALIA",
    "Latitude": -37.891,
    "Longitude": 145.3002,
    "Location Details": "AN ESTABLISHMENT WHERE A RANGE OF FUEL PRODUCTS CAN BE PURCHASED BY MOTORISTS",
    "Category": 3812407,
    "brand": [
      "SHELL"
    ]
  },
  {
    "Station Name": "TAMBO BP",
    "Address": "1760 PRINCES HIGHWAY",
    "City": "JOHNSONVILLE",
    "Postal Code": "3902",
    "Region": "VIC",
    "Country": "AUSTRALIA",
    "Latitude": -37.8204,
    "Longitude": 147.8314,
    "Location Details": "AN ESTABLISHMENT WHERE A RANGE OF FUEL PRODUCTS CAN BE PURCHASED BY MOTORISTS",
    "Category": 3812407,
    "brand": [
      "BP"
    ]
  },
  {
    "Station Name": "HOPPERS CROSSING",
    "Address": "1-15 HEATHS ROAD",
    "City": "HOPPERS CROSSING",
    "Postal Code": "3029",
    "Region": "VIC",
    "Country": "AUSTRALIA",
    "Latitude": -37.8801,
    "Longitude": 144.7042,
    "Location Details": "AN ESTABLISHMENT WHERE A RANGE OF FUEL PRODUCTS CAN BE PURCHASED BY MOTORISTS",
    "Category": 3812407,
    "brand": [
      "7-ELEVEN PTY LTD"
    ]
  },
  {
    "Station Name": "CALTEX ST ALBANS",
    "Address": "151-157 KINGS ROAD",
    "City": "KINGS PARK",
    "Postal Code": "3021",
    "Region": "VIC",
    "Country": "AUSTRALIA",
    "Latitude": -37.728,
    "Longitude": 144.7816,
    "Location Details": "AN ESTABLISHMENT WHERE A RANGE OF FUEL PRODUCTS CAN BE PURCHASED BY MOTORISTS",
    "Category": 3812407,
    "brand": [
      "CALTEX"
    ]
  },
  {
    "Station Name": "YARRA GLEN",
    "Address": "6 BELL STREET",
    "City": "YARRA GLEN",
    "Postal Code": "3775",
    "Region": "VIC",
    "Country": "AUSTRALIA",
    "Latitude": -37.6593,
    "Longitude": 145.3745,
    "Location Details": "AN ESTABLISHMENT WHERE A RANGE OF FUEL PRODUCTS CAN BE PURCHASED BY MOTORISTS",
    "Category": 3812407,
    "brand": [
      "UNITED"
    ]
  },
  {
    "Station Name": "CALTEX WAHRING",
    "Address": "9 MOSS ROAD",
    "City": "GOULBURN WEIR",
    "Postal Code": "3608",
    "Region": "VIC",
    "Country": "AUSTRALIA",
    "Latitude": -36.7077,
    "Longitude": 145.1985,
    "Location Details": "AN ESTABLISHMENT WHERE A RANGE OF FUEL PRODUCTS CAN BE PURCHASED BY MOTORISTS",
    "Category": 3812407,
    "brand": [
      "CALTEX"
    ]
  },
  {
    "Station Name": "SAFEWAY CALTEX BAYSWATER",
    "Address": "659 MOUNTAIN HIGHWAY",
    "City": "BAYSWATER",
    "Postal Code": "3153",
    "Region": "VIC",
    "Country": "AUSTRALIA",
    "Latitude": -37.8412,
    "Longitude": 145.2622,
    "Location Details": "AN ESTABLISHMENT WHERE A RANGE OF FUEL PRODUCTS CAN BE PURCHASED BY MOTORISTS",
    "Category": 3812407,
    "brand": [
      "CALTEX"
    ]
  },
  {
    "Station Name": "CALTEX COBURG NORTH",
    "Address": "44 NEWLANDS ROAD",
    "City": "COBURG NORTH",
    "Postal Code": "3058",
    "Region": "VIC",
    "Country": "AUSTRALIA",
    "Latitude": -37.7314,
    "Longitude": 144.972,
    "Location Details": "AN ESTABLISHMENT WHERE A RANGE OF FUEL PRODUCTS CAN BE PURCHASED BY MOTORISTS",
    "Category": 3812407,
    "brand": [
      "CALTEX"
    ]
  },
  {
    "Station Name": "INDEPENDENT CORRYONG",
    "Address": "33 DONALDSON STREET",
    "City": "CORRYONG",
    "Postal Code": "3707",
    "Region": "VIC",
    "Country": "AUSTRALIA",
    "Latitude": -36.1931,
    "Longitude": 147.9054,
    "Location Details": "AN ESTABLISHMENT WHERE A RANGE OF FUEL PRODUCTS CAN BE PURCHASED BY MOTORISTS",
    "Category": 3812407,
    "brand": [
      "INDEPENDENT FUEL SUPPLIES"
    ]
  },
  {
    "Station Name": "CALTEX ASCOT VALE",
    "Address": "1 EPSOM ROAD",
    "City": "ASCOT VALE",
    "Postal Code": "3032",
    "Region": "VIC",
    "Country": "AUSTRALIA",
    "Latitude": -37.771,
    "Longitude": 144.906,
    "Location Details": "AN ESTABLISHMENT WHERE A RANGE OF FUEL PRODUCTS CAN BE PURCHASED BY MOTORISTS",
    "Category": 3812407,
    "brand": [
      "CALTEX"
    ]
  },
  {
    "Station Name": "TRARALGON EAST",
    "Address": "327-333 PRINCES HIGHWAY",
    "City": "TRARALGON EAST",
    "Postal Code": "3844",
    "Region": "VIC",
    "Country": "AUSTRALIA",
    "Latitude": -38.1893,
    "Longitude": 146.5665,
    "Location Details": "AN ESTABLISHMENT WHERE A RANGE OF FUEL PRODUCTS CAN BE PURCHASED BY MOTORISTS",
    "Category": 3812407,
    "brand": [
      "INDEPENDENT FUEL SUPPLIES"
    ]
  },
  {
    "Station Name": "BP ROOKSBY",
    "Address": "417 CANTERBURY ROAD",
    "City": "VERMONT",
    "Postal Code": "3133",
    "Region": "VIC",
    "Country": "AUSTRALIA",
    "Latitude": -37.8363,
    "Longitude": 145.1887,
    "Location Details": "AN ESTABLISHMENT WHERE A RANGE OF FUEL PRODUCTS CAN BE PURCHASED BY MOTORISTS",
    "Category": 3812407,
    "brand": [
      "BP"
    ]
  },
  {
    "Station Name": "SAFEWAY CALTEX PASCOE VALE",
    "Address": "566-570 BELL STREET",
    "City": "PASCOE VALE",
    "Postal Code": "3044",
    "Region": "VIC",
    "Country": "AUSTRALIA",
    "Latitude": -37.7378,
    "Longitude": 144.937,
    "Location Details": "AN ESTABLISHMENT WHERE A RANGE OF FUEL PRODUCTS CAN BE PURCHASED BY MOTORISTS",
    "Category": 3812407,
    "brand": [
      "CALTEX"
    ]
  },
  {
    "Station Name": "SAFEWAY CALTEX SUNBURY",
    "Address": "25-29 HORNE STREET",
    "City": "SUNBURY",
    "Postal Code": "3429",
    "Region": "VIC",
    "Country": "AUSTRALIA",
    "Latitude": -37.5782,
    "Longitude": 144.7276,
    "Location Details": "AN ESTABLISHMENT WHERE A RANGE OF FUEL PRODUCTS CAN BE PURCHASED BY MOTORISTS",
    "Category": 3812407,
    "brand": [
      "CALTEX"
    ]
  },
  {
    "Station Name": "CALTEX SAFEWAY WESTMEADOWS",
    "Address": "227-231 MICKLEHAM ROAD",
    "City": "WESTMEADOWS",
    "Postal Code": "3049",
    "Region": "VIC",
    "Country": "AUSTRALIA",
    "Latitude": -37.6852,
    "Longitude": 144.8822,
    "Location Details": "AN ESTABLISHMENT WHERE A RANGE OF FUEL PRODUCTS CAN BE PURCHASED BY MOTORISTS",
    "Category": 3812407,
    "brand": [
      "CALTEX"
    ]
  },
  {
    "Station Name": "AMPOL LOWER PLENTY",
    "Address": "49 MAIN ROAD",
    "City": "LOWER PLENTY",
    "Postal Code": "3093",
    "Region": "VIC",
    "Country": "AUSTRALIA",
    "Latitude": -37.7278,
    "Longitude": 145.1115,
    "Location Details": "AN ESTABLISHMENT WHERE A RANGE OF FUEL PRODUCTS CAN BE PURCHASED BY MOTORISTS",
    "Category": 3812407,
    "brand": [
      "AMPOL"
    ]
  },
  {
    "Station Name": "COLES EXPRESS EPPING",
    "Address": "511 HIGH STREET",
    "City": "EPPING",
    "Postal Code": "3076",
    "Region": "VIC",
    "Country": "AUSTRALIA",
    "Latitude": -37.6592,
    "Longitude": 145.0188,
    "Location Details": "AN ESTABLISHMENT WHERE A RANGE OF FUEL PRODUCTS CAN BE PURCHASED BY MOTORISTS",
    "Category": 3812407,
    "brand": [
      "CALTEX"
    ]
  },
  {
    "Station Name": "COLAC WEST",
    "Address": "340 PRINCES HIGHWAY",
    "City": "COLAC WEST",
    "Postal Code": "3250",
    "Region": "VIC",
    "Country": "AUSTRALIA",
    "Latitude": -38.335,
    "Longitude": 143.5537,
    "Location Details": "AN ESTABLISHMENT WHERE A RANGE OF FUEL PRODUCTS CAN BE PURCHASED BY MOTORISTS",
    "Category": 3812407,
    "brand": [
      "BP"
    ]
  },
  {
    "Station Name": "CALTEX ECHUCA",
    "Address": "200 OGILVIE AVENUE",
    "City": "ECHUCA",
    "Postal Code": "3564",
    "Region": "VIC",
    "Country": "AUSTRALIA",
    "Latitude": -36.1403,
    "Longitude": 144.753,
    "Location Details": "AN ESTABLISHMENT WHERE A RANGE OF FUEL PRODUCTS CAN BE PURCHASED BY MOTORISTS",
    "Category": 3812407,
    "brand": [
      "CALTEX"
    ]
  },
  {
    "Station Name": "MOBIL STAWELL",
    "Address": "29 ARARAT ROAD",
    "City": "STAWELL",
    "Postal Code": "3380",
    "Region": "VIC",
    "Country": "AUSTRALIA",
    "Latitude": -37.0712,
    "Longitude": 142.7726,
    "Location Details": "AN ESTABLISHMENT WHERE A RANGE OF FUEL PRODUCTS CAN BE PURCHASED BY MOTORISTS",
    "Category": 3812407,
    "brand": [
      "7-ELEVEN PTY LTD"
    ]
  },
  {
    "Station Name": "CALTEX KORUMBURRA",
    "Address": "70 COMMERCIAL STREET",
    "City": "KORUMBURRA",
    "Postal Code": "3950",
    "Region": "VIC",
    "Country": "AUSTRALIA",
    "Latitude": -38.4311,
    "Longitude": 145.8233,
    "Location Details": "AN ESTABLISHMENT WHERE A RANGE OF FUEL PRODUCTS CAN BE PURCHASED BY MOTORISTS",
    "Category": 3812407,
    "brand": [
      "CALTEX"
    ]
  },
  {
    "Station Name": "BP WYNDHAM VALE",
    "Address": "210 BALLAN ROAD",
    "City": "WYNDHAM VALE",
    "Postal Code": "3024",
    "Region": "VIC",
    "Country": "AUSTRALIA",
    "Latitude": -37.8919,
    "Longitude": 144.6307,
    "Location Details": "AN ESTABLISHMENT WHERE A RANGE OF FUEL PRODUCTS CAN BE PURCHASED BY MOTORISTS",
    "Category": 3812407,
    "brand": [
      "BP"
    ]
  },
  {
    "Station Name": "CALTEX DINGLEY",
    "Address": "625 LOWER DANDENONG ROAD",
    "City": "DINGLEY VILLAGE",
    "Postal Code": "3172",
    "Region": "VIC",
    "Country": "AUSTRALIA",
    "Latitude": -37.99,
    "Longitude": 145.1409,
    "Location Details": "AN ESTABLISHMENT WHERE A RANGE OF FUEL PRODUCTS CAN BE PURCHASED BY MOTORISTS",
    "Category": 3812407,
    "brand": [
      "CALTEX"
    ]
  },
  {
    "Station Name": "CALTEX NUMURKAH",
    "Address": "3221 GOULBURN VALLEY HIGHWAY",
    "City": "NUMURKAH",
    "Postal Code": "3636",
    "Region": "VIC",
    "Country": "AUSTRALIA",
    "Latitude": -36.0995,
    "Longitude": 145.4311,
    "Location Details": "AN ESTABLISHMENT WHERE A RANGE OF FUEL PRODUCTS CAN BE PURCHASED BY MOTORISTS",
    "Category": 3812407,
    "brand": [
      "INDEPENDENT FUEL SUPPLIES"
    ]
  },
  {
    "Station Name": "MOBIL BALLARAT",
    "Address": "1 MELBOURNE ROAD",
    "City": "BALLARAT",
    "Postal Code": "3350",
    "Region": "VIC",
    "Country": "AUSTRALIA",
    "Latitude": -37.5568,
    "Longitude": 143.8946,
    "Location Details": "AN ESTABLISHMENT WHERE A RANGE OF FUEL PRODUCTS CAN BE PURCHASED BY MOTORISTS",
    "Category": 3812407,
    "brand": [
      "7-ELEVEN PTY LTD"
    ]
  },
  {
    "Station Name": "BP WOODEND",
    "Address": "130 HIGH STREET",
    "City": "WOODEND",
    "Postal Code": "3442",
    "Region": "VIC",
    "Country": "AUSTRALIA",
    "Latitude": -37.3555,
    "Longitude": 144.5296,
    "Location Details": "AN ESTABLISHMENT WHERE A RANGE OF FUEL PRODUCTS CAN BE PURCHASED BY MOTORISTS",
    "Category": 3812407,
    "brand": [
      "BP"
    ]
  },
  {
    "Station Name": "BENTLEIGH EAST",
    "Address": "641-643 CENTRE ROAD",
    "City": "BENTLEIGH EAST",
    "Postal Code": "3165",
    "Region": "VIC",
    "Country": "AUSTRALIA",
    "Latitude": -37.9201,
    "Longitude": 145.0523,
    "Location Details": "AN ESTABLISHMENT WHERE A RANGE OF FUEL PRODUCTS CAN BE PURCHASED BY MOTORISTS",
    "Category": 3812407,
    "brand": [
      "UNITED"
    ]
  },
  {
    "Station Name": "COLES EXPRESS GEELONG WEST",
    "Address": "27 CHURCH STREET",
    "City": "GEELONG WEST",
    "Postal Code": "3218",
    "Region": "VIC",
    "Country": "AUSTRALIA",
    "Latitude": -38.1322,
    "Longitude": 144.349,
    "Location Details": "AN ESTABLISHMENT WHERE A RANGE OF FUEL PRODUCTS CAN BE PURCHASED BY MOTORISTS",
    "Category": 3812407,
    "brand": [
      "SHELL"
    ]
  },
  {
    "Station Name": "DIAMOND CREEK",
    "Address": "52 CHUTE STREET",
    "City": "DIAMOND CREEK",
    "Postal Code": "3089",
    "Region": "VIC",
    "Country": "AUSTRALIA",
    "Latitude": -37.6734,
    "Longitude": 145.1518,
    "Location Details": "AN ESTABLISHMENT WHERE A RANGE OF FUEL PRODUCTS CAN BE PURCHASED BY MOTORISTS",
    "Category": 3812407,
    "brand": [
      "SHELL"
    ]
  },
  {
    "Station Name": "MOBIL SALE",
    "Address": "354-362 YORK STREET",
    "City": "SALE",
    "Postal Code": "3850",
    "Region": "VIC",
    "Country": "AUSTRALIA",
    "Latitude": -38.0989,
    "Longitude": 147.0683,
    "Location Details": "AN ESTABLISHMENT WHERE A RANGE OF FUEL PRODUCTS CAN BE PURCHASED BY MOTORISTS",
    "Category": 3812407,
    "brand": [
      "INDEPENDENT FUEL SUPPLIES"
    ]
  },
  {
    "Station Name": "EAST MELBOURNE",
    "Address": "23-29 VICTORIA STREET",
    "City": "MELBOURNE",
    "Postal Code": "3000",
    "Region": "VIC",
    "Country": "AUSTRALIA",
    "Latitude": -37.8073,
    "Longitude": 144.9669,
    "Location Details": "AN ESTABLISHMENT WHERE A RANGE OF FUEL PRODUCTS CAN BE PURCHASED BY MOTORISTS",
    "Category": 3812407,
    "brand": [
      "7-ELEVEN PTY LTD"
    ]
  },
  {
    "Station Name": "COLES EXPRESS NORLANE",
    "Address": "458-468 MELBOURNE ROAD",
    "City": "NORLANE",
    "Postal Code": "3214",
    "Region": "VIC",
    "Country": "AUSTRALIA",
    "Latitude": -38.1,
    "Longitude": 144.3545,
    "Location Details": "AN ESTABLISHMENT WHERE A RANGE OF FUEL PRODUCTS CAN BE PURCHASED BY MOTORISTS",
    "Category": 3812407,
    "brand": [
      "SHELL"
    ]
  },
  {
    "Station Name": "COLES EXPRESS BRAESIDE",
    "Address": "918-928 SPRINGVALE ROAD",
    "City": "BRAESIDE",
    "Postal Code": "3195",
    "Region": "VIC",
    "Country": "AUSTRALIA",
    "Latitude": -38.0098,
    "Longitude": 145.1403,
    "Location Details": "AN ESTABLISHMENT WHERE A RANGE OF FUEL PRODUCTS CAN BE PURCHASED BY MOTORISTS",
    "Category": 3812407,
    "brand": [
      "SHELL"
    ]
  },
  {
    "Station Name": "INDEPENDENT OUYEN",
    "Address": "57 FARRELL STREET",
    "City": "OUYEN",
    "Postal Code": "3490",
    "Region": "VIC",
    "Country": "AUSTRALIA",
    "Latitude": -35.0639,
    "Longitude": 142.3182,
    "Location Details": "AN ESTABLISHMENT WHERE A RANGE OF FUEL PRODUCTS CAN BE PURCHASED BY MOTORISTS",
    "Category": 3812407,
    "brand": [
      "INDEPENDENT FUEL SUPPLIES"
    ]
  },
  {
    "Station Name": "BP LAVERTON",
    "Address": "15 FITZGERALD ROAD",
    "City": "LAVERTON NORTH",
    "Postal Code": "3026",
    "Region": "VIC",
    "Country": "AUSTRALIA",
    "Latitude": -37.8419,
    "Longitude": 144.7816,
    "Location Details": "AN ESTABLISHMENT WHERE A RANGE OF FUEL PRODUCTS CAN BE PURCHASED BY MOTORISTS",
    "Category": 3812407,
    "brand": [
      "BP"
    ]
  },
  {
    "Station Name": "BP BERWICK",
    "Address": "276 CLYDE ROAD",
    "City": "BERWICK",
    "Postal Code": "3806",
    "Region": "VIC",
    "Country": "AUSTRALIA",
    "Latitude": -38.0578,
    "Longitude": 145.3382,
    "Location Details": "AN ESTABLISHMENT WHERE A RANGE OF FUEL PRODUCTS CAN BE PURCHASED BY MOTORISTS",
    "Category": 3812407,
    "brand": [
      "BP"
    ]
  },
  {
    "Station Name": "CALTEX DROMANA",
    "Address": "109 POINT NEPEAN ROAD",
    "City": "DROMANA",
    "Postal Code": "3936",
    "Region": "VIC",
    "Country": "AUSTRALIA",
    "Latitude": -38.3301,
    "Longitude": 144.9707,
    "Location Details": "AN ESTABLISHMENT WHERE A RANGE OF FUEL PRODUCTS CAN BE PURCHASED BY MOTORISTS",
    "Category": 3812407,
    "brand": [
      "CALTEX"
    ]
  },
  {
    "Station Name": "CALTEX PORT CAMPBELL",
    "Address": "30-32 LORD STREET",
    "City": "PORT CAMPBELL",
    "Postal Code": "3269",
    "Region": "VIC",
    "Country": "AUSTRALIA",
    "Latitude": -38.6198,
    "Longitude": 142.9954,
    "Location Details": "AN ESTABLISHMENT WHERE A RANGE OF FUEL PRODUCTS CAN BE PURCHASED BY MOTORISTS",
    "Category": 3812407,
    "brand": [
      "INDEPENDENT FUEL SUPPLIES"
    ]
  },
  {
    "Station Name": "FRANKSTON",
    "Address": "51 DAVEY STREET",
    "City": "FRANKSTON",
    "Postal Code": "3199",
    "Region": "VIC",
    "Country": "AUSTRALIA",
    "Latitude": -38.1473,
    "Longitude": 145.1253,
    "Location Details": "AN ESTABLISHMENT WHERE A RANGE OF FUEL PRODUCTS CAN BE PURCHASED BY MOTORISTS",
    "Category": 3812407,
    "brand": [
      "UNITED"
    ]
  },
  {
    "Station Name": "KERANG",
    "Address": "9511 MURRAY VALLEY HIGHWAY",
    "City": "KERANG",
    "Postal Code": "3579",
    "Region": "VIC",
    "Country": "AUSTRALIA",
    "Latitude": -35.751,
    "Longitude": 143.9246,
    "Location Details": "AN ESTABLISHMENT WHERE A RANGE OF FUEL PRODUCTS CAN BE PURCHASED BY MOTORISTS",
    "Category": 3812407,
    "brand": [
      "BP"
    ]
  },
  {
    "Station Name": "SAFEWAY CALTEX HUNTINGDALE",
    "Address": "1337 NORTH ROAD",
    "City": "HUNTINGDALE",
    "Postal Code": "3166",
    "Region": "VIC",
    "Country": "AUSTRALIA",
    "Latitude": -37.9119,
    "Longitude": 145.1093,
    "Location Details": "AN ESTABLISHMENT WHERE A RANGE OF FUEL PRODUCTS CAN BE PURCHASED BY MOTORISTS",
    "Category": 3812407,
    "brand": [
      "CALTEX"
    ]
  },
  {
    "Station Name": "SHELL SEYMOUR",
    "Address": "37-39 EMILY STREET",
    "City": "SEYMOUR",
    "Postal Code": "3660",
    "Region": "VIC",
    "Country": "AUSTRALIA",
    "Latitude": -37.0204,
    "Longitude": 145.1278,
    "Location Details": "AN ESTABLISHMENT WHERE A RANGE OF FUEL PRODUCTS CAN BE PURCHASED BY MOTORISTS",
    "Category": 3812407,
    "brand": [
      "SHELL"
    ]
  },
  {
    "Station Name": "KILMORE",
    "Address": "127-145 POWLETT STREET",
    "City": "KILMORE",
    "Postal Code": "3764",
    "Region": "VIC",
    "Country": "AUSTRALIA",
    "Latitude": -37.3092,
    "Longitude": 144.9494,
    "Location Details": "AN ESTABLISHMENT WHERE A RANGE OF FUEL PRODUCTS CAN BE PURCHASED BY MOTORISTS",
    "Category": 3812407,
    "brand": [
      "UNITED"
    ]
  },
  {
    "Station Name": "COLES EXPRESS LANGWARRIN",
    "Address": "184 CRANBOURNE-FRANKSTON ROAD",
    "City": "LANGWARRIN",
    "Postal Code": "3910",
    "Region": "VIC",
    "Country": "AUSTRALIA",
    "Latitude": -38.1527,
    "Longitude": 145.1905,
    "Location Details": "AN ESTABLISHMENT WHERE A RANGE OF FUEL PRODUCTS CAN BE PURCHASED BY MOTORISTS",
    "Category": 3812407,
    "brand": [
      "SHELL"
    ]
  },
  {
    "Station Name": "CALTEX WARRAGUL",
    "Address": "180 QUEEN STREET",
    "City": "WARRAGUL",
    "Postal Code": "3820",
    "Region": "VIC",
    "Country": "AUSTRALIA",
    "Latitude": -38.1672,
    "Longitude": 145.946,
    "Location Details": "AN ESTABLISHMENT WHERE A RANGE OF FUEL PRODUCTS CAN BE PURCHASED BY MOTORISTS",
    "Category": 3812407,
    "brand": [
      "CALTEX"
    ]
  },
  {
    "Station Name": "INDEPENDENT TAWONGA SOUTH",
    "Address": "233 KIEWA VALLEY HIGHWAY",
    "City": "TAWONGA SOUTH",
    "Postal Code": "3698",
    "Region": "VIC",
    "Country": "AUSTRALIA",
    "Latitude": -36.7379,
    "Longitude": 147.1606,
    "Location Details": "AN ESTABLISHMENT WHERE A RANGE OF FUEL PRODUCTS CAN BE PURCHASED BY MOTORISTS",
    "Category": 3812407,
    "brand": [
      "CALTEX"
    ]
  },
  {
    "Station Name": "GLEN WAVERLEY",
    "Address": "726-730 WAVERLEY ROAD",
    "City": "GLEN WAVERLEY",
    "Postal Code": "3150",
    "Region": "VIC",
    "Country": "AUSTRALIA",
    "Latitude": -37.8893,
    "Longitude": 145.1646,
    "Location Details": "AN ESTABLISHMENT WHERE A RANGE OF FUEL PRODUCTS CAN BE PURCHASED BY MOTORISTS",
    "Category": 3812407,
    "brand": [
      "7-ELEVEN PTY LTD"
    ]
  },
  {
    "Station Name": "MURRAY GOULBURN MYRTLEFORD",
    "Address": "17 MYRTLE STREET",
    "City": "MYRTLEFORD",
    "Postal Code": "3737",
    "Region": "VIC",
    "Country": "AUSTRALIA",
    "Latitude": -36.5686,
    "Longitude": 146.7301,
    "Location Details": "AN ESTABLISHMENT WHERE A RANGE OF FUEL PRODUCTS CAN BE PURCHASED BY MOTORISTS",
    "Category": 3812407,
    "brand": [
      "SHELL"
    ]
  },
  {
    "Station Name": "CHADSTONE",
    "Address": "609 WAVERLEY ROAD",
    "City": "CHADSTONE",
    "Postal Code": "3145",
    "Region": "VIC",
    "Country": "AUSTRALIA",
    "Latitude": -37.877,
    "Longitude": 145.086,
    "Location Details": "AN ESTABLISHMENT WHERE A RANGE OF FUEL PRODUCTS CAN BE PURCHASED BY MOTORISTS",
    "Category": 3812407,
    "brand": [
      "7-ELEVEN PTY LTD"
    ]
  },
  {
    "Station Name": "CALTEX COLERAINE",
    "Address": "42 WHYTE STREET",
    "City": "COLERAINE",
    "Postal Code": "3315",
    "Region": "VIC",
    "Country": "AUSTRALIA",
    "Latitude": -37.5984,
    "Longitude": 141.6959,
    "Location Details": "AN ESTABLISHMENT WHERE A RANGE OF FUEL PRODUCTS CAN BE PURCHASED BY MOTORISTS",
    "Category": 3812407,
    "brand": [
      "CALTEX"
    ]
  },
  {
    "Station Name": "BP CAMPERDOWN",
    "Address": "4 THORNTON STREET",
    "City": "CAMPERDOWN",
    "Postal Code": "3260",
    "Region": "VIC",
    "Country": "AUSTRALIA",
    "Latitude": -38.2276,
    "Longitude": 143.1464,
    "Location Details": "AN ESTABLISHMENT WHERE A RANGE OF FUEL PRODUCTS CAN BE PURCHASED BY MOTORISTS",
    "Category": 3812407,
    "brand": [
      "BP"
    ]
  },
  {
    "Station Name": "BP BAIRNSDALE",
    "Address": "432 MAIN STREET",
    "City": "BAIRNSDALE",
    "Postal Code": "3875",
    "Region": "VIC",
    "Country": "AUSTRALIA",
    "Latitude": -37.8292,
    "Longitude": 147.6149,
    "Location Details": "AN ESTABLISHMENT WHERE A RANGE OF FUEL PRODUCTS CAN BE PURCHASED BY MOTORISTS",
    "Category": 3812407,
    "brand": [
      "BP"
    ]
  },
  {
    "Station Name": "EAST WERRIBEE",
    "Address": "125 BALLAN ROAD",
    "City": "WERRIBEE",
    "Postal Code": "3024",
    "Region": "VIC",
    "Country": "AUSTRALIA",
    "Latitude": -37.893,
    "Longitude": 144.6303,
    "Location Details": "AN ESTABLISHMENT WHERE A RANGE OF FUEL PRODUCTS CAN BE PURCHASED BY MOTORISTS",
    "Category": 3812407,
    "brand": [
      "7-ELEVEN PTY LTD"
    ]
  },
  {
    "Station Name": "UPWEY",
    "Address": "1441 BURWOOD HIGHWAY",
    "City": "UPWEY",
    "Postal Code": "3158",
    "Region": "VIC",
    "Country": "AUSTRALIA",
    "Latitude": -37.9019,
    "Longitude": 145.3302,
    "Location Details": "AN ESTABLISHMENT WHERE A RANGE OF FUEL PRODUCTS CAN BE PURCHASED BY MOTORISTS",
    "Category": 3812407,
    "brand": [
      "7-ELEVEN PTY LTD"
    ]
  },
  {
    "Station Name": "CALTEX KILSYTH",
    "Address": "92-94 CANTERBURY ROAD",
    "City": "KILSYTH",
    "Postal Code": "3137",
    "Region": "VIC",
    "Country": "AUSTRALIA",
    "Latitude": -37.8185,
    "Longitude": 145.3175,
    "Location Details": "AN ESTABLISHMENT WHERE A RANGE OF FUEL PRODUCTS CAN BE PURCHASED BY MOTORISTS",
    "Category": 3812407,
    "brand": [
      "CALTEX"
    ]
  },
  {
    "Station Name": "MOBIL SWAN HILL",
    "Address": "1-9 BEVERIDGE STREET",
    "City": "SWAN HILL",
    "Postal Code": "3585",
    "Region": "VIC",
    "Country": "AUSTRALIA",
    "Latitude": -35.3343,
    "Longitude": 143.5571,
    "Location Details": "AN ESTABLISHMENT WHERE A RANGE OF FUEL PRODUCTS CAN BE PURCHASED BY MOTORISTS",
    "Category": 3812407,
    "brand": [
      "7-ELEVEN PTY LTD"
    ]
  },
  {
    "Station Name": "REDESDALE STORE",
    "Address": "2609 KYNETON-REDESDALE ROAD",
    "City": "REDESDALE",
    "Postal Code": "3444",
    "Region": "VIC",
    "Country": "AUSTRALIA",
    "Latitude": -37.0247,
    "Longitude": 144.5309,
    "Location Details": "AN ESTABLISHMENT WHERE A RANGE OF FUEL PRODUCTS CAN BE PURCHASED BY MOTORISTS",
    "Category": 3812407,
    "brand": [
      "BP"
    ]
  },
  {
    "Station Name": "BP OAKLEIGH",
    "Address": "1400 DANDENONG ROAD",
    "City": "OAKLEIGH",
    "Postal Code": "3166",
    "Region": "VIC",
    "Country": "AUSTRALIA",
    "Latitude": -37.8936,
    "Longitude": 145.0899,
    "Location Details": "AN ESTABLISHMENT WHERE A RANGE OF FUEL PRODUCTS CAN BE PURCHASED BY MOTORISTS",
    "Category": 3812407,
    "brand": [
      "BP"
    ]
  },
  {
    "Station Name": "SHELL PORTLAND",
    "Address": "615 HENTY HIGHWAY",
    "City": "PORTLAND",
    "Postal Code": "3305",
    "Region": "VIC",
    "Country": "AUSTRALIA",
    "Latitude": -38.3214,
    "Longitude": 141.5962,
    "Location Details": "AN ESTABLISHMENT WHERE A RANGE OF FUEL PRODUCTS CAN BE PURCHASED BY MOTORISTS",
    "Category": 3812407,
    "brand": [
      "SHELL"
    ]
  },
  {
    "Station Name": "BP GRANTVILLE",
    "Address": "1514 BASS HIGHWAY",
    "City": "GRANTVILLE",
    "Postal Code": "3984",
    "Region": "VIC",
    "Country": "AUSTRALIA",
    "Latitude": -38.4077,
    "Longitude": 145.5296,
    "Location Details": "AN ESTABLISHMENT WHERE A RANGE OF FUEL PRODUCTS CAN BE PURCHASED BY MOTORISTS",
    "Category": 3812407,
    "brand": [
      "BP"
    ]
  },
  {
    "Station Name": "MOBIL NAPOLEONS",
    "Address": "4760 COLAC-BALLARAT ROAD",
    "City": "NAPOLEONS",
    "Postal Code": "3352",
    "Region": "VIC",
    "Country": "AUSTRALIA",
    "Latitude": -37.6758,
    "Longitude": 143.8303,
    "Location Details": "AN ESTABLISHMENT WHERE A RANGE OF FUEL PRODUCTS CAN BE PURCHASED BY MOTORISTS",
    "Category": 3812407,
    "brand": [
      "7-ELEVEN PTY LTD"
    ]
  },
  {
    "Station Name": "SAFEWAY CALTEX SHEPPARTON",
    "Address": "292-294 HIGH STREET",
    "City": "SHEPPARTON",
    "Postal Code": "3630",
    "Region": "VIC",
    "Country": "AUSTRALIA",
    "Latitude": -36.3829,
    "Longitude": 145.41,
    "Location Details": "AN ESTABLISHMENT WHERE A RANGE OF FUEL PRODUCTS CAN BE PURCHASED BY MOTORISTS",
    "Category": 3812407,
    "brand": [
      "CALTEX"
    ]
  },
  {
    "Station Name": "HASTINGS",
    "Address": "1996 FRANKSTON-FLINDERS ROAD",
    "City": "HASTINGS",
    "Postal Code": "3915",
    "Region": "VIC",
    "Country": "AUSTRALIA",
    "Latitude": -38.2994,
    "Longitude": 145.1833,
    "Location Details": "AN ESTABLISHMENT WHERE A RANGE OF FUEL PRODUCTS CAN BE PURCHASED BY MOTORISTS",
    "Category": 3812407,
    "brand": [
      "UNITED"
    ]
  },
  {
    "Station Name": "TOORADIN",
    "Address": "26-28 SOUTH GIPPSLAND HIGHWAY",
    "City": "TOORADIN",
    "Postal Code": "3980",
    "Region": "VIC",
    "Country": "AUSTRALIA",
    "Latitude": -38.2075,
    "Longitude": 145.3736,
    "Location Details": "AN ESTABLISHMENT WHERE A RANGE OF FUEL PRODUCTS CAN BE PURCHASED BY MOTORISTS",
    "Category": 3812407,
    "brand": [
      "UNITED"
    ]
  },
  {
    "Station Name": "SAFEWAY CALTEX MILDURA",
    "Address": "114 LIME AVENUE",
    "City": "MILDURA",
    "Postal Code": "3500",
    "Region": "VIC",
    "Country": "AUSTRALIA",
    "Latitude": -34.1861,
    "Longitude": 142.1578,
    "Location Details": "AN ESTABLISHMENT WHERE A RANGE OF FUEL PRODUCTS CAN BE PURCHASED BY MOTORISTS",
    "Category": 3812407,
    "brand": [
      "CALTEX"
    ]
  },
  {
    "Station Name": "BP  TEMPLESTOWE",
    "Address": "2-4 UNION STREET",
    "City": "TEMPLESTOWE LOWER",
    "Postal Code": "3107",
    "Region": "VIC",
    "Country": "AUSTRALIA",
    "Latitude": -37.757,
    "Longitude": 145.1141,
    "Location Details": "AN ESTABLISHMENT WHERE A RANGE OF FUEL PRODUCTS CAN BE PURCHASED BY MOTORISTS",
    "Category": 3812407,
    "brand": [
      "BP"
    ]
  },
  {
    "Station Name": "R & P MATTHEWS PTY LTD",
    "Address": "50-56 KENNEDY STREET",
    "City": "PORTLAND",
    "Postal Code": "3305",
    "Region": "VIC",
    "Country": "AUSTRALIA",
    "Latitude": -38.3356,
    "Longitude": 141.5994,
    "Location Details": "AN ESTABLISHMENT WHERE A RANGE OF FUEL PRODUCTS CAN BE PURCHASED BY MOTORISTS",
    "Category": 3812407,
    "brand": [
      "CALTEX"
    ]
  },
  {
    "Station Name": "BP MERBEIN",
    "Address": "59 COMMERCIAL STREET",
    "City": "MERBEIN",
    "Postal Code": "3505",
    "Region": "VIC",
    "Country": "AUSTRALIA",
    "Latitude": -34.1675,
    "Longitude": 142.0588,
    "Location Details": "AN ESTABLISHMENT WHERE A RANGE OF FUEL PRODUCTS CAN BE PURCHASED BY MOTORISTS",
    "Category": 3812407,
    "brand": [
      "BP"
    ]
  },
  {
    "Station Name": "AMPOL BROOKLYN",
    "Address": "574 GEELONG ROAD",
    "City": "BROOKLYN",
    "Postal Code": "3012",
    "Region": "VIC",
    "Country": "AUSTRALIA",
    "Latitude": -37.8169,
    "Longitude": 144.8471,
    "Location Details": "AN ESTABLISHMENT WHERE A RANGE OF FUEL PRODUCTS CAN BE PURCHASED BY MOTORISTS",
    "Category": 3812407,
    "brand": [
      "CALTEX"
    ]
  },
  {
    "Station Name": "BP HEALESVILLE",
    "Address": "66 MAROONDAH HIGHWAY",
    "City": "HEALESVILLE",
    "Postal Code": "3777",
    "Region": "VIC",
    "Country": "AUSTRALIA",
    "Latitude": -37.6618,
    "Longitude": 145.5132,
    "Location Details": "AN ESTABLISHMENT WHERE A RANGE OF FUEL PRODUCTS CAN BE PURCHASED BY MOTORISTS",
    "Category": 3812407,
    "brand": [
      "BP"
    ]
  },
  {
    "Station Name": "COLES EXPRESS MACLEOD",
    "Address": "230 GREENSBOROUGH ROAD",
    "City": "YALLAMBIE",
    "Postal Code": "3085",
    "Region": "VIC",
    "Country": "AUSTRALIA",
    "Latitude": -37.7198,
    "Longitude": 145.0815,
    "Location Details": "AN ESTABLISHMENT WHERE A RANGE OF FUEL PRODUCTS CAN BE PURCHASED BY MOTORISTS",
    "Category": 3812407,
    "brand": [
      "SHELL"
    ]
  },
  {
    "Station Name": "CALTEX FOSTER",
    "Address": "3895 SOUTH GIPPSLAND HIGHWAY",
    "City": "FOSTER",
    "Postal Code": "3960",
    "Region": "VIC",
    "Country": "AUSTRALIA",
    "Latitude": -38.6494,
    "Longitude": 146.2156,
    "Location Details": "AN ESTABLISHMENT WHERE A RANGE OF FUEL PRODUCTS CAN BE PURCHASED BY MOTORISTS",
    "Category": 3812407,
    "brand": [
      "CALTEX"
    ]
  },
  {
    "Station Name": "CALTEX LOCKINGTON",
    "Address": "1 ARCHIBALD STREET",
    "City": "LOCKINGTON",
    "Postal Code": "3563",
    "Region": "VIC",
    "Country": "AUSTRALIA",
    "Latitude": -36.2721,
    "Longitude": 144.5361,
    "Location Details": "AN ESTABLISHMENT WHERE A RANGE OF FUEL PRODUCTS CAN BE PURCHASED BY MOTORISTS",
    "Category": 3812407,
    "brand": [
      "INDEPENDENT FUEL SUPPLIES"
    ]
  },
  {
    "Station Name": "COLES EXPRESS THOROUGHBRED",
    "Address": "414-416 HIGH STREET",
    "City": "MELTON",
    "Postal Code": "3337",
    "Region": "VIC",
    "Country": "AUSTRALIA",
    "Latitude": -37.6831,
    "Longitude": 144.5776,
    "Location Details": "AN ESTABLISHMENT WHERE A RANGE OF FUEL PRODUCTS CAN BE PURCHASED BY MOTORISTS",
    "Category": 3812407,
    "brand": [
      "SHELL"
    ]
  },
  {
    "Station Name": "CAMBERWELL",
    "Address": "735 RIVERSDALE ROAD",
    "City": "CAMBERWELL",
    "Postal Code": "3124",
    "Region": "VIC",
    "Country": "AUSTRALIA",
    "Latitude": -37.8335,
    "Longitude": 145.0771,
    "Location Details": "AN ESTABLISHMENT WHERE A RANGE OF FUEL PRODUCTS CAN BE PURCHASED BY MOTORISTS",
    "Category": 3812407,
    "brand": [
      "7-ELEVEN PTY LTD"
    ]
  },
  {
    "Station Name": "DOWSON'S",
    "Address": "307 WHITE ROAD",
    "City": "SOUTH DUDLEY",
    "Postal Code": "3995",
    "Region": "VIC",
    "Country": "AUSTRALIA",
    "Latitude": -38.5881,
    "Longitude": 145.5792,
    "Location Details": "AN ESTABLISHMENT WHERE A RANGE OF FUEL PRODUCTS CAN BE PURCHASED BY MOTORISTS",
    "Category": 3812407,
    "brand": [
      "SHELL"
    ]
  },
  {
    "Station Name": "CALTEX BENALLA",
    "Address": "159-161 BRIDGE STREET",
    "City": "BENALLA",
    "Postal Code": "3672",
    "Region": "VIC",
    "Country": "AUSTRALIA",
    "Latitude": -36.5496,
    "Longitude": 145.9913,
    "Location Details": "AN ESTABLISHMENT WHERE A RANGE OF FUEL PRODUCTS CAN BE PURCHASED BY MOTORISTS",
    "Category": 3812407,
    "brand": [
      "CALTEX"
    ]
  },
  {
    "Station Name": "NAGAMBIE",
    "Address": "191-201 HIGH STREET",
    "City": "NAGAMBIE",
    "Postal Code": "3608",
    "Region": "VIC",
    "Country": "AUSTRALIA",
    "Latitude": -36.7945,
    "Longitude": 145.1511,
    "Location Details": "AN ESTABLISHMENT WHERE A RANGE OF FUEL PRODUCTS CAN BE PURCHASED BY MOTORISTS",
    "Category": 3812407,
    "brand": [
      "UNITED"
    ]
  },
  {
    "Station Name": "SPRINGVALE SOUTH",
    "Address": "581 SPRINGVALE ROAD",
    "City": "SPRINGVALE SOUTH",
    "Postal Code": "3172",
    "Region": "VIC",
    "Country": "AUSTRALIA",
    "Latitude": -37.9722,
    "Longitude": 145.1486,
    "Location Details": "AN ESTABLISHMENT WHERE A RANGE OF FUEL PRODUCTS CAN BE PURCHASED BY MOTORISTS",
    "Category": 3812407,
    "brand": [
      "7-ELEVEN PTY LTD"
    ]
  },
  {
    "Station Name": "SPRINGS CONVENIENCE STORE",
    "Address": "200 POINT LONSDALE ROAD",
    "City": "POINT LONSDALE",
    "Postal Code": "3225",
    "Region": "VIC",
    "Country": "AUSTRALIA",
    "Latitude": -38.2751,
    "Longitude": 144.6192,
    "Location Details": "AN ESTABLISHMENT WHERE A RANGE OF FUEL PRODUCTS CAN BE PURCHASED BY MOTORISTS",
    "Category": 3812407,
    "brand": [
      "BP"
    ]
  },